{
"type": "FeatureCollection",
"name": "japan_opendata_city",
"crs": { "type": "name", "properties": { "name": "urn:ogc:def:crs:OGC:1.3:CRS84" } },
"features": [
{ "type": "Feature", "properties": { "ObjectID": 1, "USER_city_code": 1100, "USER_city_name": "北海道札幌市", "USER_url1": "http:\/\/www2.city.sapporo.jp\/opendata\/", "USER_url2": null, "USER_url3": null }, "geometry": { "type": "Point", "coordinates": [ 141.354368530001011, 43.062037113059297 ] } },
{ "type": "Feature", "properties": { "ObjectID": 2, "USER_city_code": 1202, "USER_city_name": "北海道函館市", "USER_url1": "http:\/\/www.city.hakodate.hokkaido.jp\/docs\/2016072200055\/", "USER_url2": null, "USER_url3": null }, "geometry": { "type": "Point", "coordinates": [ 140.728875673000999, 41.768679138063099 ] } },
{ "type": "Feature", "properties": { "ObjectID": 3, "USER_city_code": 1203, "USER_city_name": "北海道小樽市", "USER_url1": "http:\/\/www.city.otaru.lg.jp\/sisei_tokei\/kojin_joho\/open_deta\/", "USER_url2": null, "USER_url3": null }, "geometry": { "type": "Point", "coordinates": [ 140.994438705000988, 43.190633333058997 ] } },
{ "type": "Feature", "properties": { "ObjectID": 4, "USER_city_code": 1204, "USER_city_name": "北海道旭川市", "USER_url1": "http:\/\/www.city.asahikawa.hokkaido.jp\/700\/jouhouseisaku\/jouhouseisaku004\/d054760.html", "USER_url2": null, "USER_url3": null }, "geometry": { "type": "Point", "coordinates": [ 142.364935164000997, 43.770873514058003 ] } },
{ "type": "Feature", "properties": { "ObjectID": 5, "USER_city_code": 1205, "USER_city_name": "北海道室蘭市", "USER_url1": "http:\/\/www.city.muroran.lg.jp\/main\/org2260\/odlib.php", "USER_url2": "http:\/\/library-muroran.opendata.arcgis.com\/", "USER_url3": null }, "geometry": { "type": "Point", "coordinates": [ 140.973774837001002, 42.3151437140612 ] } },
{ "type": "Feature", "properties": { "ObjectID": 6, "USER_city_code": 1345, "USER_city_name": "北海道森町", "USER_url1": "http:\/\/www.town.hokkaido-mori.lg.jp\/bunya\/joho_opendata\/", "USER_url2": null, "USER_url3": null }, "geometry": { "type": "Point", "coordinates": [ 140.576425565000989, 42.104999484061899 ] } },
{ "type": "Feature", "properties": { "ObjectID": 7, "USER_city_code": 1346, "USER_city_name": "北海道八雲町", "USER_url1": "http:\/\/www.town.yakumo.lg.jp\/modules\/jigyo\/category0080.html", "USER_url2": null, "USER_url3": null }, "geometry": { "type": "Point", "coordinates": [ 140.26513853600099, 42.256000353061403 ] } },
{ "type": "Feature", "properties": { "ObjectID": 8, "USER_city_code": 2201, "USER_city_name": "青森県青森市", "USER_url1": "http:\/\/www.city.aomori.aomori.jp\/joho-seisaku\/opendata\/opendata_portal.html", "USER_url2": null, "USER_url3": null }, "geometry": { "type": "Point", "coordinates": [ 140.747419728001006, 40.822226177067002 ] } },
{ "type": "Feature", "properties": { "ObjectID": 9, "USER_city_code": 2202, "USER_city_name": "青森県弘前市", "USER_url1": "https:\/\/www.opendata-hirosaki.jp\/", "USER_url2": null, "USER_url3": null }, "geometry": { "type": "Point", "coordinates": [ 140.464090178000987, 40.602992521068103 ] } },
{ "type": "Feature", "properties": { "ObjectID": 10, "USER_city_code": 2203, "USER_city_name": "青森県八戸市", "USER_url1": "http:\/\/www.city.hachinohe.aomori.jp\/index.cfm\/8,98085,35,516,html", "USER_url2": null, "USER_url3": null }, "geometry": { "type": "Point", "coordinates": [ 141.488415414000997, 40.5122735210686 ] } },
{ "type": "Feature", "properties": { "ObjectID": 11, "USER_city_code": 2206, "USER_city_name": "青森県十和田市", "USER_url1": "http:\/\/www.city.towada.lg.jp\/docs\/2017121900018\/", "USER_url2": null, "USER_url3": null }, "geometry": { "type": "Point", "coordinates": [ 141.206056728000988, 40.612787517068 ] } },
{ "type": "Feature", "properties": { "ObjectID": 12, "USER_city_code": 3209, "USER_city_name": "岩手県一関市", "USER_url1": "http:\/\/www.city.ichinoseki.iwate.jp\/index.cfm\/7,88706,209,html", "USER_url2": null, "USER_url3": null }, "geometry": { "type": "Point", "coordinates": [ 141.126815929000998, 38.934650128077998 ] } },
{ "type": "Feature", "properties": { "ObjectID": 13, "USER_city_code": 4100, "USER_city_name": "宮城県仙台市", "USER_url1": "http:\/\/www.city.sendai.jp\/joho-kikaku\/shise\/security\/kokai\/dataportal.html", "USER_url2": null, "USER_url3": null }, "geometry": { "type": "Point", "coordinates": [ 140.869401941001001, 38.268219291082801 ] } },
{ "type": "Feature", "properties": { "ObjectID": 14, "USER_city_code": 4202, "USER_city_name": "宮城県石巻市", "USER_url1": "http:\/\/www.city.ishinomaki.lg.jp\/cont\/10182000\/20161007130030.html", "USER_url2": null, "USER_url3": null }, "geometry": { "type": "Point", "coordinates": [ 141.302710413000995, 38.434212661081503 ] } },
{ "type": "Feature", "properties": { "ObjectID": 15, "USER_city_code": 4212, "USER_city_name": "宮城県登米市", "USER_url1": "http:\/\/www.city.tome.miyagi.jp\/kikaku\/opendata.html", "USER_url2": null, "USER_url3": null }, "geometry": { "type": "Point", "coordinates": [ 141.187707974001, 38.691874445079698 ] } },
{ "type": "Feature", "properties": { "ObjectID": 16, "USER_city_code": 5203, "USER_city_name": "秋田県横手市", "USER_url1": "http:\/\/www.city.yokote.lg.jp\/joho\/page000006.html", "USER_url2": null, "USER_url3": null }, "geometry": { "type": "Point", "coordinates": [ 140.566660203000993, 39.313768899075399 ] } },
{ "type": "Feature", "properties": { "ObjectID": 17, "USER_city_code": 5207, "USER_city_name": "秋田県湯沢市", "USER_url1": "http:\/\/www.city-yuzawa.jp\/opendatatop\/index.html", "USER_url2": null, "USER_url3": null }, "geometry": { "type": "Point", "coordinates": [ 140.495726496000998, 39.164350764076403 ] } },
{ "type": "Feature", "properties": { "ObjectID": 18, "USER_city_code": 6201, "USER_city_name": "山形県山形市", "USER_url1": "https:\/\/www.city.yamagata-yamagata.lg.jp\/opendeta\/", "USER_url2": null, "USER_url3": null }, "geometry": { "type": "Point", "coordinates": [ 140.339584285000996, 38.255343215082902 ] } },
{ "type": "Feature", "properties": { "ObjectID": 19, "USER_city_code": 7201, "USER_city_name": "福島県福島市", "USER_url1": "https:\/\/www.city.fukushima.fukushima.jp\/jouhouka-seisaku\/shise\/opendate.html", "USER_url2": null, "USER_url3": null }, "geometry": { "type": "Point", "coordinates": [ 140.474760080001005, 37.760816161086801 ] } },
{ "type": "Feature", "properties": { "ObjectID": 20, "USER_city_code": 7202, "USER_city_name": "福島県会津若松市", "USER_url1": "https:\/\/www.data4citizen.jp", "USER_url2": "http:\/\/www.city.aizuwakamatsu.fukushima.jp\/docs\/2009122400048\/", "USER_url3": "http:\/\/ja.linkdata.org\/" }, "geometry": { "type": "Point", "coordinates": [ 139.929767038000989, 37.494581992089003 ] } },
{ "type": "Feature", "properties": { "ObjectID": 21, "USER_city_code": 7203, "USER_city_name": "福島県郡山市", "USER_url1": "http:\/\/www.city.koriyama.fukushima.jp\/062000\/opendata2016.html", "USER_url2": null, "USER_url3": null }, "geometry": { "type": "Point", "coordinates": [ 140.359674101000991, 37.400464123089797 ] } },
{ "type": "Feature", "properties": { "ObjectID": 22, "USER_city_code": 7204, "USER_city_name": "福島県いわき市", "USER_url1": "http:\/\/www.city.iwaki.lg.jp\/www\/contents\/1450754040684\/index.html", "USER_url2": null, "USER_url3": null }, "geometry": { "type": "Point", "coordinates": [ 140.887613814001014, 37.050434564092903 ] } },
{ "type": "Feature", "properties": { "ObjectID": 23, "USER_city_code": 7208, "USER_city_name": "福島県喜多方市", "USER_url1": "https:\/\/www.city.kitakata.fukushima.jp\/soshiki\/jyouhou\/291.html", "USER_url2": null, "USER_url3": null }, "geometry": { "type": "Point", "coordinates": [ 139.874607321001008, 37.6513496200877 ] } },
{ "type": "Feature", "properties": { "ObjectID": 24, "USER_city_code": 8201, "USER_city_name": "茨城県水戸市", "USER_url1": "http:\/\/www.city.mito.lg.jp\/opendata_lib\/index.html", "USER_url2": null, "USER_url3": null }, "geometry": { "type": "Point", "coordinates": [ 140.471708351001013, 36.365167002099298 ] } },
{ "type": "Feature", "properties": { "ObjectID": 25, "USER_city_code": 8216, "USER_city_name": "茨城県笠間市", "USER_url1": "http:\/\/www.city.kasama.lg.jp\/page\/page006070.html", "USER_url2": null, "USER_url3": null }, "geometry": { "type": "Point", "coordinates": [ 140.304330936001008, 36.345279260099502 ] } },
{ "type": "Feature", "properties": { "ObjectID": 26, "USER_city_code": 8341, "USER_city_name": "茨城県東海村", "USER_url1": "http:\/\/www.vill.tokai.ibaraki.jp\/viewer\/genre1.html?id=1008", "USER_url2": null, "USER_url3": null }, "geometry": { "type": "Point", "coordinates": [ 140.566135824001009, 36.472964449098299 ] } },
{ "type": "Feature", "properties": { "ObjectID": 27, "USER_city_code": 9201, "USER_city_name": "栃木県宇都宮市", "USER_url1": "http:\/\/www.city.utsunomiya.tochigi.jp\/opendata\/index.html", "USER_url2": null, "USER_url3": null }, "geometry": { "type": "Point", "coordinates": [ 139.882520705001014, 36.555133642097502 ] } },
{ "type": "Feature", "properties": { "ObjectID": 28, "USER_city_code": 9204, "USER_city_name": "栃木県佐野市", "USER_url1": "http:\/\/www.city.sano.lg.jp\/open\/index.html", "USER_url2": null, "USER_url3": null }, "geometry": { "type": "Point", "coordinates": [ 139.578368675001002, 36.314347100099802 ] } },
{ "type": "Feature", "properties": { "ObjectID": 29, "USER_city_code": 9208, "USER_city_name": "栃木県小山市", "USER_url1": "https:\/\/www.city.oyama.tochigi.jp\/gyosei\/johokokai\/opendata\/opendata_site.html", "USER_url2": null, "USER_url3": null }, "geometry": { "type": "Point", "coordinates": [ 139.800107667000987, 36.314618039099798 ] } },
{ "type": "Feature", "properties": { "ObjectID": 30, "USER_city_code": 9210, "USER_city_name": "栃木県大田原市", "USER_url1": "http:\/\/opendata-nasu.opendatastack.jp\/", "USER_url2": null, "USER_url3": null }, "geometry": { "type": "Point", "coordinates": [ 140.017474104000996, 36.871451945094499 ] } },
{ "type": "Feature", "properties": { "ObjectID": 31, "USER_city_code": 9213, "USER_city_name": "栃木県那須塩原市", "USER_url1": "http:\/\/opendata-nasu.opendatastack.jp\/", "USER_url2": null, "USER_url3": null }, "geometry": { "type": "Point", "coordinates": [ 140.046051920000991, 36.9617030120937 ] } },
{ "type": "Feature", "properties": { "ObjectID": 32, "USER_city_code": 9214, "USER_city_name": "栃木県さくら市", "USER_url1": "http:\/\/www.city.tochigi-sakura.lg.jp\/site\/opendata\/", "USER_url2": null, "USER_url3": null }, "geometry": { "type": "Point", "coordinates": [ 139.966487689001013, 36.685342511096302 ] } },
{ "type": "Feature", "properties": { "ObjectID": 33, "USER_city_code": 9386, "USER_city_name": "栃木県高根沢町", "USER_url1": "https:\/\/www.town.takanezawa.tochigi.jp\/gyosei\/tokei\/opendata-jyunbi.html", "USER_url2": null, "USER_url3": null }, "geometry": { "type": "Point", "coordinates": [ 139.986459816001002, 36.631044435096797 ] } },
{ "type": "Feature", "properties": { "ObjectID": 34, "USER_city_code": 9407, "USER_city_name": "栃木県那須町", "USER_url1": "http:\/\/opendata-nasu.opendatastack.jp\/", "USER_url2": null, "USER_url3": null }, "geometry": { "type": "Point", "coordinates": [ 140.120951209000992, 37.019796768093201 ] } },
{ "type": "Feature", "properties": { "ObjectID": 35, "USER_city_code": 10201, "USER_city_name": "群馬県前橋市", "USER_url1": "http:\/\/www.city.maebashi.gunma.jp\/sisei\/499\/509\/p012146.html", "USER_url2": null, "USER_url3": null }, "geometry": { "type": "Point", "coordinates": [ 139.063418211000993, 36.389497290099101 ] } },
{ "type": "Feature", "properties": { "ObjectID": 36, "USER_city_code": 11100, "USER_city_name": "埼玉県さいたま市", "USER_url1": "http:\/\/www.city.saitama.jp\/006\/008\/002\/014\/index.html", "USER_url2": null, "USER_url3": null }, "geometry": { "type": "Point", "coordinates": [ 139.645542826000991, 35.861668775104299 ] } },
{ "type": "Feature", "properties": { "ObjectID": 37, "USER_city_code": 11201, "USER_city_name": "埼玉県川越市", "USER_url1": "https:\/\/opendata.pref.saitama.lg.jp\/", "USER_url2": null, "USER_url3": null }, "geometry": { "type": "Point", "coordinates": [ 139.485781045001005, 35.925144897103699 ] } },
{ "type": "Feature", "properties": { "ObjectID": 38, "USER_city_code": 11202, "USER_city_name": "埼玉県熊谷市", "USER_url1": "http:\/\/www.city.kumagaya.lg.jp\/about\/opendata\/index.html", "USER_url2": null, "USER_url3": null }, "geometry": { "type": "Point", "coordinates": [ 139.388645597000988, 36.147305819101398 ] } },
{ "type": "Feature", "properties": { "ObjectID": 39, "USER_city_code": 11203, "USER_city_name": "埼玉県川口市", "USER_url1": "http:\/\/www.city.kawaguchi.lg.jp\/kbn\/04150088\/04150088.html", "USER_url2": null, "USER_url3": null }, "geometry": { "type": "Point", "coordinates": [ 139.724126599001011, 35.8076913101049 ] } },
{ "type": "Feature", "properties": { "ObjectID": 40, "USER_city_code": 11209, "USER_city_name": "埼玉県飯能市", "USER_url1": "https:\/\/www.city.hanno.lg.jp\/article\/detail\/1760", "USER_url2": null, "USER_url3": null }, "geometry": { "type": "Point", "coordinates": [ 139.327657877001002, 35.8556770801044 ] } },
{ "type": "Feature", "properties": { "ObjectID": 41, "USER_city_code": 11217, "USER_city_name": "埼玉県鴻巣市", "USER_url1": "http:\/\/www.city.kounosu.saitama.jp\/opendata\/", "USER_url2": null, "USER_url3": null }, "geometry": { "type": "Point", "coordinates": [ 139.522218056001009, 36.065904285102299 ] } },
{ "type": "Feature", "properties": { "ObjectID": 42, "USER_city_code": 11218, "USER_city_name": "埼玉県深谷市", "USER_url1": "http:\/\/www.city.fukaya.saitama.jp\/soshiki\/somu\/johoshisutemu\/tanto\/1447976830574.html", "USER_url2": "https:\/\/opendata.pref.saitama.lg.jp\/data\/organization\/112186-000-fukayashi", "USER_url3": null }, "geometry": { "type": "Point", "coordinates": [ 139.281456633001, 36.197547718100999 ] } },
{ "type": "Feature", "properties": { "ObjectID": 43, "USER_city_code": 11221, "USER_city_name": "埼玉県草加市", "USER_url1": "http:\/\/www.city.soka.saitama.jp\/cont\/s1201\/060\/010\/010\/010\/PAGE000000000000051257.html", "USER_url2": null, "USER_url3": null }, "geometry": { "type": "Point", "coordinates": [ 139.805368392000986, 35.825415212104701 ] } },
{ "type": "Feature", "properties": { "ObjectID": 44, "USER_city_code": 11222, "USER_city_name": "埼玉県越谷市", "USER_url1": "https:\/\/opendata.pref.saitama.lg.jp\/", "USER_url2": null, "USER_url3": null }, "geometry": { "type": "Point", "coordinates": [ 139.790923130001005, 35.891127706104001 ] } },
{ "type": "Feature", "properties": { "ObjectID": 45, "USER_city_code": 11224, "USER_city_name": "埼玉県戸田市", "USER_url1": "http:\/\/www.city.toda.saitama.jp\/site\/opendata\/", "USER_url2": "https:\/\/opendata.pref.saitama.lg.jp\/", "USER_url3": null }, "geometry": { "type": "Point", "coordinates": [ 139.677907574001011, 35.817633911104799 ] } },
{ "type": "Feature", "properties": { "ObjectID": 46, "USER_city_code": 11227, "USER_city_name": "埼玉県朝霞市", "USER_url1": "https:\/\/opendata.pref.saitama.lg.jp", "USER_url2": null, "USER_url3": null }, "geometry": { "type": "Point", "coordinates": [ 139.593652153000988, 35.797142202105 ] } },
{ "type": "Feature", "properties": { "ObjectID": 47, "USER_city_code": 11229, "USER_city_name": "埼玉県和光市", "USER_url1": "http:\/\/www.city.wako.lg.jp\/home\/shisei\/_5745\/_13903.html", "USER_url2": "http:\/\/www.data.go.jp\/data\/dataset?q=%E5%92%8C%E5%85%89%E5%B8%82", "USER_url3": null }, "geometry": { "type": "Point", "coordinates": [ 139.605804033000993, 35.781359180105198 ] } },
{ "type": "Feature", "properties": { "ObjectID": 48, "USER_city_code": 11230, "USER_city_name": "埼玉県新座市", "USER_url1": "https:\/\/opendata.pref.saitama.lg.jp\/", "USER_url2": null, "USER_url3": null }, "geometry": { "type": "Point", "coordinates": [ 139.565334551001001, 35.793523478105001 ] } },
{ "type": "Feature", "properties": { "ObjectID": 49, "USER_city_code": 11232, "USER_city_name": "埼玉県久喜市", "USER_url1": "https:\/\/opendata.pref.saitama.lg.jp\/", "USER_url2": null, "USER_url3": null }, "geometry": { "type": "Point", "coordinates": [ 139.666842271001002, 36.062102113102299 ] } },
{ "type": "Feature", "properties": { "ObjectID": 50, "USER_city_code": 11233, "USER_city_name": "埼玉県北本市", "USER_url1": "http:\/\/www.city.kitamoto.saitama.jp\/opendata\/", "USER_url2": null, "USER_url3": null }, "geometry": { "type": "Point", "coordinates": [ 139.530121844001002, 36.026759298102597 ] } },
{ "type": "Feature", "properties": { "ObjectID": 51, "USER_city_code": 11237, "USER_city_name": "埼玉県三郷市", "USER_url1": "https:\/\/opendata.pref.saitama.lg.jp\/", "USER_url2": null, "USER_url3": null }, "geometry": { "type": "Point", "coordinates": [ 139.87225128400101, 35.830136882104703 ] } },
{ "type": "Feature", "properties": { "ObjectID": 52, "USER_city_code": 11242, "USER_city_name": "埼玉県日高市", "USER_url1": "http:\/\/www.city.hidaka.lg.jp\/benrinasabisu\/opendatecatalog.html", "USER_url2": "https:\/\/opendata.pref.saitama.lg.jp\/", "USER_url3": null }, "geometry": { "type": "Point", "coordinates": [ 139.339073707001006, 35.9077814001039 ] } },
{ "type": "Feature", "properties": { "ObjectID": 53, "USER_city_code": 11245, "USER_city_name": "埼玉県ふじみ野市", "USER_url1": "http:\/\/www.city.fujimino.saitama.jp\/doc\/2016052700063\/", "USER_url2": null, "USER_url3": null }, "geometry": { "type": "Point", "coordinates": [ 139.519564551000997, 35.879381952104197 ] } },
{ "type": "Feature", "properties": { "ObjectID": 54, "USER_city_code": 11324, "USER_city_name": "埼玉県三芳町", "USER_url1": "https:\/\/www.town.saitama-miyoshi.lg.jp\/town\/chosa\/opendata.html", "USER_url2": null, "USER_url3": null }, "geometry": { "type": "Point", "coordinates": [ 139.526447521000989, 35.828240593104702 ] } },
{ "type": "Feature", "properties": { "ObjectID": 55, "USER_city_code": 11326, "USER_city_name": "埼玉県毛呂山町", "USER_url1": "https:\/\/opendata.pref.saitama.lg.jp\/", "USER_url2": null, "USER_url3": null }, "geometry": { "type": "Point", "coordinates": [ 139.316049851000997, 35.9414963251035 ] } },
{ "type": "Feature", "properties": { "ObjectID": 56, "USER_city_code": 11348, "USER_city_name": "埼玉県鳩山町", "USER_url1": "https:\/\/opendata.pref.saitama.lg.jp\/", "USER_url2": null, "USER_url3": null }, "geometry": { "type": "Point", "coordinates": [ 139.33404666700099, 35.9814922281031 ] } },
{ "type": "Feature", "properties": { "ObjectID": 57, "USER_city_code": 11369, "USER_city_name": "埼玉県東秩父村", "USER_url1": "https:\/\/opendata.pref.saitama.lg.jp\/", "USER_url2": null, "USER_url3": null }, "geometry": { "type": "Point", "coordinates": [ 139.194706319001, 36.058166447102302 ] } },
{ "type": "Feature", "properties": { "ObjectID": 58, "USER_city_code": 11464, "USER_city_name": "埼玉県杉戸町", "USER_url1": "https:\/\/opendata.pref.saitama.lg.jp\/", "USER_url2": null, "USER_url3": null }, "geometry": { "type": "Point", "coordinates": [ 139.736672186000987, 36.025830769102697 ] } },
{ "type": "Feature", "properties": { "ObjectID": 59, "USER_city_code": 12100, "USER_city_name": "千葉県千葉市", "USER_url1": "http:\/\/www.city.chiba.jp\/opendata\/index.php", "USER_url2": null, "USER_url3": null }, "geometry": { "type": "Point", "coordinates": [ 140.10662843400101, 35.607474158107003 ] } },
{ "type": "Feature", "properties": { "ObjectID": 60, "USER_city_code": 12203, "USER_city_name": "千葉県市川市", "USER_url1": "http:\/\/www.city.ichikawa.lg.jp\/pla01\/opendata.html", "USER_url2": null, "USER_url3": null }, "geometry": { "type": "Point", "coordinates": [ 139.928002551000986, 35.713640047105898 ] } },
{ "type": "Feature", "properties": { "ObjectID": 61, "USER_city_code": 12204, "USER_city_name": "千葉県船橋市", "USER_url1": "http:\/\/www.city.funabashi.lg.jp\/shisei\/toukei\/002\/p054119.html", "USER_url2": null, "USER_url3": null }, "geometry": { "type": "Point", "coordinates": [ 139.982421702001005, 35.694548187106101 ] } },
{ "type": "Feature", "properties": { "ObjectID": 62, "USER_city_code": 12206, "USER_city_name": "千葉県木更津市", "USER_url1": "http:\/\/www.city.kisarazu.lg.jp\/14,45452,50,305.html", "USER_url2": null, "USER_url3": null }, "geometry": { "type": "Point", "coordinates": [ 139.936272952000991, 35.385775807109397 ] } },
{ "type": "Feature", "properties": { "ObjectID": 63, "USER_city_code": 12207, "USER_city_name": "千葉県松戸市", "USER_url1": "http:\/\/www.city.matsudo.chiba.jp\/shisei\/keikaku-kousou\/opendata\/index.html", "USER_url2": null, "USER_url3": null }, "geometry": { "type": "Point", "coordinates": [ 139.903196708000991, 35.787644110105099 ] } },
{ "type": "Feature", "properties": { "ObjectID": 64, "USER_city_code": 12208, "USER_city_name": "千葉県野田市", "USER_url1": "http:\/\/www.city.noda.chiba.jp\/shisei\/johokoukai\/opendata\/index.html", "USER_url2": null, "USER_url3": null }, "geometry": { "type": "Point", "coordinates": [ 139.874883622000993, 35.9550085421034 ] } },
{ "type": "Feature", "properties": { "ObjectID": 65, "USER_city_code": 12216, "USER_city_name": "千葉県習志野市", "USER_url1": "http:\/\/www.city.narashino.lg.jp\/joho\/keikaku\/soumu\/open-data.html", "USER_url2": null, "USER_url3": null }, "geometry": { "type": "Point", "coordinates": [ 140.02638346900099, 35.680656938106203 ] } },
{ "type": "Feature", "properties": { "ObjectID": 66, "USER_city_code": 12217, "USER_city_name": "千葉県柏市", "USER_url1": "http:\/\/www.city.kashiwa.lg.jp\/soshiki\/020800\/p040681.html", "USER_url2": null, "USER_url3": null }, "geometry": { "type": "Point", "coordinates": [ 139.975796124000993, 35.867605718104301 ] } },
{ "type": "Feature", "properties": { "ObjectID": 67, "USER_city_code": 12219, "USER_city_name": "千葉県市原市", "USER_url1": "http:\/\/www.city.ichihara.chiba.jp\/joho\/toukei\/opendata\/opendatacatalog.html", "USER_url2": null, "USER_url3": null }, "geometry": { "type": "Point", "coordinates": [ 140.115574489001006, 35.497930851108201 ] } },
{ "type": "Feature", "properties": { "ObjectID": 68, "USER_city_code": 12220, "USER_city_name": "千葉県流山市", "USER_url1": "http:\/\/www.city.nagareyama.chiba.jp\/10763\/index.html", "USER_url2": null, "USER_url3": null }, "geometry": { "type": "Point", "coordinates": [ 139.902705350001014, 35.856299110104402 ] } },
{ "type": "Feature", "properties": { "ObjectID": 69, "USER_city_code": 12227, "USER_city_name": "千葉県浦安市", "USER_url1": "https:\/\/www.city.urayasu.lg.jp\/shisei\/keikaku\/joho\/1007718.html", "USER_url2": null, "USER_url3": null }, "geometry": { "type": "Point", "coordinates": [ 139.901981436000995, 35.653129856106503 ] } },
{ "type": "Feature", "properties": { "ObjectID": 70, "USER_city_code": 12231, "USER_city_name": "千葉県印西市", "USER_url1": "http:\/\/www.city.inzai.lg.jp\/0000004803.html", "USER_url2": null, "USER_url3": null }, "geometry": { "type": "Point", "coordinates": [ 140.145781041000987, 35.832363941104703 ] } },
{ "type": "Feature", "properties": { "ObjectID": 71, "USER_city_code": 13101, "USER_city_name": "東京都千代田区", "USER_url1": "https:\/\/www.city.chiyoda.lg.jp\/koho\/kuse\/homepage\/open-data.html", "USER_url2": null, "USER_url3": null }, "geometry": { "type": "Point", "coordinates": [ 139.753711121001004, 35.6939298261061 ] } },
{ "type": "Feature", "properties": { "ObjectID": 72, "USER_city_code": 13103, "USER_city_name": "東京都港区", "USER_url1": "http:\/\/www.city.minato.tokyo.jp\/ictsuishintan\/opendata\/", "USER_url2": null, "USER_url3": null }, "geometry": { "type": "Point", "coordinates": [ 139.751545870000996, 35.658016912106497 ] } },
{ "type": "Feature", "properties": { "ObjectID": 73, "USER_city_code": 13104, "USER_city_name": "東京都新宿区", "USER_url1": "http:\/\/www.city.shinjuku.lg.jp\/kusei\/joho01_002008.html", "USER_url2": null, "USER_url3": null }, "geometry": { "type": "Point", "coordinates": [ 139.703439870001006, 35.693797462106097 ] } },
{ "type": "Feature", "properties": { "ObjectID": 74, "USER_city_code": 13105, "USER_city_name": "東京都文京区", "USER_url1": "http:\/\/www.city.bunkyo.lg.jp\/kusejoho\/opendata.html", "USER_url2": null, "USER_url3": null }, "geometry": { "type": "Point", "coordinates": [ 139.752209951000992, 35.707595011105902 ] } },
{ "type": "Feature", "properties": { "ObjectID": 75, "USER_city_code": 13106, "USER_city_name": "東京都台東区", "USER_url1": "http:\/\/www.city.taito.lg.jp\/index\/kusei\/opendata\/opendata.html", "USER_url2": null, "USER_url3": null }, "geometry": { "type": "Point", "coordinates": [ 139.779985958000992, 35.712595240105898 ] } },
{ "type": "Feature", "properties": { "ObjectID": 76, "USER_city_code": 13107, "USER_city_name": "東京都墨田区", "USER_url1": "http:\/\/www.city.sumida.lg.jp\/kuseijoho\/sumida_info\/opendata\/index.html", "USER_url2": null, "USER_url3": null }, "geometry": { "type": "Point", "coordinates": [ 139.801539972000995, 35.710706572105899 ] } },
{ "type": "Feature", "properties": { "ObjectID": 77, "USER_city_code": 13109, "USER_city_name": "東京都品川区", "USER_url1": "http:\/\/www.city.shinagawa.tokyo.jp\/hp\/menu000024200\/hpg000024168.htm", "USER_url2": null, "USER_url3": null }, "geometry": { "type": "Point", "coordinates": [ 139.730160345000996, 35.609160187107001 ] } },
{ "type": "Feature", "properties": { "ObjectID": 78, "USER_city_code": 13112, "USER_city_name": "東京都世田谷区", "USER_url1": "http:\/\/www.city.setagaya.lg.jp\/kurashi\/107\/165\/831\/d00136348.html", "USER_url2": null, "USER_url3": null }, "geometry": { "type": "Point", "coordinates": [ 139.653221396000987, 35.646543508106603 ] } },
{ "type": "Feature", "properties": { "ObjectID": 79, "USER_city_code": 13115, "USER_city_name": "東京都杉並区", "USER_url1": "http:\/\/www2.wagmap.jp\/suginami\/top\/opendata.asp", "USER_url2": null, "USER_url3": null }, "geometry": { "type": "Point", "coordinates": [ 139.636137587001002, 35.699731300106002 ] } },
{ "type": "Feature", "properties": { "ObjectID": 80, "USER_city_code": 13116, "USER_city_name": "東京都豊島区", "USER_url1": "http:\/\/www.city.toshima.lg.jp\/020\/kuse\/electronic\/open-data\/1511041608.html", "USER_url2": null, "USER_url3": null }, "geometry": { "type": "Point", "coordinates": [ 139.716693285001014, 35.726128060105701 ] } },
{ "type": "Feature", "properties": { "ObjectID": 81, "USER_city_code": 13119, "USER_city_name": "東京都板橋区", "USER_url1": "http:\/\/www.city.itabashi.tokyo.jp\/c_categories\/index01001019.html", "USER_url2": null, "USER_url3": null }, "geometry": { "type": "Point", "coordinates": [ 139.709194212000995, 35.7510741691055 ] } },
{ "type": "Feature", "properties": { "ObjectID": 82, "USER_city_code": 13120, "USER_city_name": "東京都練馬区", "USER_url1": "http:\/\/www.city.nerima.tokyo.jp\/kusei\/tokei\/opendata\/index.html", "USER_url2": null, "USER_url3": null }, "geometry": { "type": "Point", "coordinates": [ 139.651606772001003, 35.735699813105597 ] } },
{ "type": "Feature", "properties": { "ObjectID": 83, "USER_city_code": 13121, "USER_city_name": "東京都足立区", "USER_url1": "http:\/\/www.city.adachi.tokyo.jp\/ku\/koho\/opendata\/index.html", "USER_url2": null, "USER_url3": null }, "geometry": { "type": "Point", "coordinates": [ 139.804536667001003, 35.774810932105297 ] } },
{ "type": "Feature", "properties": { "ObjectID": 84, "USER_city_code": 13123, "USER_city_name": "東京都江戸川区", "USER_url1": "https:\/\/www.city.edogawa.tokyo.jp\/kuseijoho\/open-data\/index.html", "USER_url2": null, "USER_url3": null }, "geometry": { "type": "Point", "coordinates": [ 139.868366984001, 35.707013622105997 ] } },
{ "type": "Feature", "properties": { "ObjectID": 85, "USER_city_code": 13201, "USER_city_name": "東京都八王子市", "USER_url1": "http:\/\/www.city.hachioji.tokyo.jp\/contents\/open\/002\/index.html", "USER_url2": null, "USER_url3": null }, "geometry": { "type": "Point", "coordinates": [ 139.316082307001011, 35.666449312106401 ] } },
{ "type": "Feature", "properties": { "ObjectID": 86, "USER_city_code": 13206, "USER_city_name": "東京都府中市", "USER_url1": "http:\/\/www.city.fuchu.tokyo.jp\/gyosei\/opendata\/index.html", "USER_url2": null, "USER_url3": null }, "geometry": { "type": "Point", "coordinates": [ 139.477707074000989, 35.668981177106403 ] } },
{ "type": "Feature", "properties": { "ObjectID": 87, "USER_city_code": 13208, "USER_city_name": "東京都調布市", "USER_url1": "http:\/\/www.city.chofu.tokyo.jp\/www\/genre\/0000000000000\/1415777807513\/index.html", "USER_url2": null, "USER_url3": null }, "geometry": { "type": "Point", "coordinates": [ 139.540829846001003, 35.650631294106603 ] } },
{ "type": "Feature", "properties": { "ObjectID": 88, "USER_city_code": 13209, "USER_city_name": "東京都町田市", "USER_url1": "https:\/\/www.city.machida.tokyo.jp\/shisei\/opendata\/index.html", "USER_url2": "http:\/\/opendata.city.machida.tokyo.jp\/", "USER_url3": null }, "geometry": { "type": "Point", "coordinates": [ 139.438695581001014, 35.546625295107603 ] } },
{ "type": "Feature", "properties": { "ObjectID": 89, "USER_city_code": 13212, "USER_city_name": "東京都日野市", "USER_url1": "http:\/\/www.city.hino.lg.jp\/index.cfm\/196,129180,353,2132,html", "USER_url2": null, "USER_url3": null }, "geometry": { "type": "Point", "coordinates": [ 139.395297423001011, 35.671200898106299 ] } },
{ "type": "Feature", "properties": { "ObjectID": 90, "USER_city_code": 13213, "USER_city_name": "東京都東村山市", "USER_url1": "http:\/\/www.city.higashimurayama.tokyo.jp\/shisei\/keikaku\/joho\/opendata\/index.html", "USER_url2": null, "USER_url3": null }, "geometry": { "type": "Point", "coordinates": [ 139.468468349001, 35.754610200105397 ] } },
{ "type": "Feature", "properties": { "ObjectID": 91, "USER_city_code": 13218, "USER_city_name": "東京都福生市", "USER_url1": "http:\/\/www.city.fussa.tokyo.jp\/municipal\/outline\/opendata\/1005584.html", "USER_url2": null, "USER_url3": null }, "geometry": { "type": "Point", "coordinates": [ 139.326745153001013, 35.738663204105599 ] } },
{ "type": "Feature", "properties": { "ObjectID": 92, "USER_city_code": 13223, "USER_city_name": "東京都武蔵村山市", "USER_url1": "http:\/\/www.city.musashimurayama.lg.jp\/opendata\/index.html", "USER_url2": null, "USER_url3": null }, "geometry": { "type": "Point", "coordinates": [ 139.387433993000997, 35.754857432105503 ] } },
{ "type": "Feature", "properties": { "ObjectID": 93, "USER_city_code": 13224, "USER_city_name": "東京都多摩市", "USER_url1": "http:\/\/www.city.tama.lg.jp\/opendata.html", "USER_url2": null, "USER_url3": null }, "geometry": { "type": "Point", "coordinates": [ 139.446294845001006, 35.637066583106702 ] } },
{ "type": "Feature", "properties": { "ObjectID": 94, "USER_city_code": 13225, "USER_city_name": "東京都稲城市", "USER_url1": "http:\/\/www.city.inagi.tokyo.jp\/shisei\/gyosei\/opendata\/opendata_catalogpage\/index.html", "USER_url2": null, "USER_url3": null }, "geometry": { "type": "Point", "coordinates": [ 139.504603659000992, 35.637915806106697 ] } },
{ "type": "Feature", "properties": { "ObjectID": 95, "USER_city_code": 14100, "USER_city_name": "神奈川県横浜市", "USER_url1": "http:\/\/www.city.yokohama.lg.jp\/seisaku\/seisaku\/opendata\/catalog.html", "USER_url2": null, "USER_url3": null }, "geometry": { "type": "Point", "coordinates": [ 139.638063509001, 35.444126109108701 ] } },
{ "type": "Feature", "properties": { "ObjectID": 96, "USER_city_code": 14130, "USER_city_name": "神奈川県川崎市", "USER_url1": "http:\/\/www.city.kawasaki.jp\/shisei\/category\/51-7-4-0-0-0-0-0-0-0.html", "USER_url2": null, "USER_url3": null }, "geometry": { "type": "Point", "coordinates": [ 139.702437680000997, 35.529941684107797 ] } },
{ "type": "Feature", "properties": { "ObjectID": 97, "USER_city_code": 14150, "USER_city_name": "神奈川県相模原市", "USER_url1": "http:\/\/www.city.sagamihara.kanagawa.jp\/opendata\/index.html", "USER_url2": null, "USER_url3": null }, "geometry": { "type": "Point", "coordinates": [ 139.372997198001002, 35.571434524107403 ] } },
{ "type": "Feature", "properties": { "ObjectID": 98, "USER_city_code": 14201, "USER_city_name": "神奈川県横須賀市", "USER_url1": "http:\/\/www.city.yokosuka.kanagawa.jp\/0110\/opendata\/index.html", "USER_url2": null, "USER_url3": null }, "geometry": { "type": "Point", "coordinates": [ 139.672171860000986, 35.281228213110502 ] } },
{ "type": "Feature", "properties": { "ObjectID": 99, "USER_city_code": 14203, "USER_city_name": "神奈川県平塚市", "USER_url1": "http:\/\/www.city.hiratsuka.kanagawa.jp\/keikaku\/page-c_00951.html", "USER_url2": null, "USER_url3": null }, "geometry": { "type": "Point", "coordinates": [ 139.349590641000987, 35.335054968109901 ] } },
{ "type": "Feature", "properties": { "ObjectID": 100, "USER_city_code": 14204, "USER_city_name": "神奈川県鎌倉市", "USER_url1": "https:\/\/www.city.kamakura.kanagawa.jp\/opendata\/opendata.html", "USER_url2": null, "USER_url3": null }, "geometry": { "type": "Point", "coordinates": [ 139.546766789000998, 35.319196027110102 ] } },
{ "type": "Feature", "properties": { "ObjectID": 101, "USER_city_code": 14205, "USER_city_name": "神奈川県藤沢市", "USER_url1": "http:\/\/www.city.fujisawa.kanagawa.jp\/joho006\/shise\/kekaku\/kakushu\/datalibrary.html", "USER_url2": null, "USER_url3": null }, "geometry": { "type": "Point", "coordinates": [ 139.490036192001014, 35.339176340109802 ] } },
{ "type": "Feature", "properties": { "ObjectID": 102, "USER_city_code": 14207, "USER_city_name": "神奈川県茅ヶ崎市", "USER_url1": "http:\/\/www.city.chigasaki.kanagawa.jp\/jyohosuishin\/1009746.html", "USER_url2": null, "USER_url3": null }, "geometry": { "type": "Point", "coordinates": [ 139.403601691001001, 35.333851831109897 ] } },
{ "type": "Feature", "properties": { "ObjectID": 103, "USER_city_code": 14208, "USER_city_name": "神奈川県逗子市", "USER_url1": "http:\/\/www.city.zushi.kanagawa.jp\/syokan\/jouhou\/opendata.html", "USER_url2": null, "USER_url3": null }, "geometry": { "type": "Point", "coordinates": [ 139.580430066000986, 35.295560584110397 ] } },
{ "type": "Feature", "properties": { "ObjectID": 104, "USER_city_code": 14210, "USER_city_name": "神奈川県三浦市", "USER_url1": "http:\/\/www.city.miura.kanagawa.jp\/toukeijyouhou\/opendataportal.html", "USER_url2": null, "USER_url3": null }, "geometry": { "type": "Point", "coordinates": [ 139.620760974001001, 35.144213704111998 ] } },
{ "type": "Feature", "properties": { "ObjectID": 105, "USER_city_code": 14211, "USER_city_name": "神奈川県秦野市", "USER_url1": "http:\/\/www.city.hadano.kanagawa.jp\/www\/contents\/1505208576337\/index.html", "USER_url2": null, "USER_url3": null }, "geometry": { "type": "Point", "coordinates": [ 139.220015091000988, 35.374737598109498 ] } },
{ "type": "Feature", "properties": { "ObjectID": 106, "USER_city_code": 14212, "USER_city_name": "神奈川県厚木市", "USER_url1": "http:\/\/www.city.atsugi.kanagawa.jp\/shisei\/15001\/opendata\/index.html", "USER_url2": null, "USER_url3": null }, "geometry": { "type": "Point", "coordinates": [ 139.362474619001006, 35.443094849108803 ] } },
{ "type": "Feature", "properties": { "ObjectID": 107, "USER_city_code": 14213, "USER_city_name": "神奈川県大和市", "USER_url1": "http:\/\/www.city.yamato.lg.jp\/web\/jyoho\/opendata.html", "USER_url2": null, "USER_url3": null }, "geometry": { "type": "Point", "coordinates": [ 139.457981049001006, 35.487500842108297 ] } },
{ "type": "Feature", "properties": { "ObjectID": 108, "USER_city_code": 14215, "USER_city_name": "神奈川県海老名市", "USER_url1": "http:\/\/www.city.ebina.kanagawa.jp\/www\/contents\/1351647866064\/index.html", "USER_url2": null, "USER_url3": null }, "geometry": { "type": "Point", "coordinates": [ 139.390833709000987, 35.446372642108699 ] } },
{ "type": "Feature", "properties": { "ObjectID": 109, "USER_city_code": 14216, "USER_city_name": "神奈川県座間市", "USER_url1": "http:\/\/www.city.zama.kanagawa.jp\/www\/genre\/0000000000000\/1511919234048\/index.html", "USER_url2": null, "USER_url3": null }, "geometry": { "type": "Point", "coordinates": [ 139.407643475001009, 35.488630600108301 ] } },
{ "type": "Feature", "properties": { "ObjectID": 110, "USER_city_code": 14218, "USER_city_name": "神奈川県綾瀬市", "USER_url1": "http:\/\/www.city.ayase.kanagawa.jp\/hp\/page000028100\/hpg000028050.htm", "USER_url2": null, "USER_url3": null }, "geometry": { "type": "Point", "coordinates": [ 139.426497134001011, 35.437179638108802 ] } },
{ "type": "Feature", "properties": { "ObjectID": 111, "USER_city_code": 14301, "USER_city_name": "神奈川県葉山町", "USER_url1": "http:\/\/www.town.hayama.lg.jp\/chousei\/outline\/opendata.html", "USER_url2": null, "USER_url3": null }, "geometry": { "type": "Point", "coordinates": [ 139.586178763000987, 35.272117901110597 ] } },
{ "type": "Feature", "properties": { "ObjectID": 112, "USER_city_code": 14401, "USER_city_name": "神奈川県愛川町", "USER_url1": "http:\/\/www.town.aikawa.kanagawa.jp\/info\/opendata\/1512548808603.html", "USER_url2": null, "USER_url3": null }, "geometry": { "type": "Point", "coordinates": [ 139.321615664001001, 35.5288065651078 ] } },
{ "type": "Feature", "properties": { "ObjectID": 113, "USER_city_code": 15100, "USER_city_name": "新潟県新潟市", "USER_url1": "http:\/\/www.city.niigata.lg.jp\/shisei\/seisaku\/it\/open-data\/index.html", "USER_url2": "http:\/\/opendata.city.niigata.lg.jp\/", "USER_url3": null }, "geometry": { "type": "Point", "coordinates": [ 139.036351161000994, 37.916196922085597 ] } },
{ "type": "Feature", "properties": { "ObjectID": 114, "USER_city_code": 15202, "USER_city_name": "新潟県長岡市", "USER_url1": "http:\/\/www.city.nagaoka.niigata.jp\/shisei\/cate10\/index.html", "USER_url2": null, "USER_url3": null }, "geometry": { "type": "Point", "coordinates": [ 138.851308830000988, 37.446429425089399 ] } },
{ "type": "Feature", "properties": { "ObjectID": 115, "USER_city_code": 15204, "USER_city_name": "新潟県三条市", "USER_url1": "http:\/\/www.city.sanjo.niigata.jp\/joho\/page00160.html", "USER_url2": null, "USER_url3": null }, "geometry": { "type": "Point", "coordinates": [ 138.961493923001001, 37.636323251087802 ] } },
{ "type": "Feature", "properties": { "ObjectID": 116, "USER_city_code": 15210, "USER_city_name": "新潟県十日町市", "USER_url1": "http:\/\/www.city.tokamachi.lg.jp\/shisei_machidukuri\/F022\/F028\/1454068614755.html", "USER_url2": null, "USER_url3": null }, "geometry": { "type": "Point", "coordinates": [ 138.755701363001009, 37.127544825092201 ] } },
{ "type": "Feature", "properties": { "ObjectID": 117, "USER_city_code": 15211, "USER_city_name": "新潟県見附市", "USER_url1": "http:\/\/www.city.mitsuke.niigata.jp\/11721.htm", "USER_url2": null, "USER_url3": null }, "geometry": { "type": "Point", "coordinates": [ 138.912752347001003, 37.531555518088702 ] } },
{ "type": "Feature", "properties": { "ObjectID": 118, "USER_city_code": 15216, "USER_city_name": "新潟県糸魚川市", "USER_url1": "http:\/\/www.city.itoigawa.lg.jp\/dd.aspx?menuid=5850", "USER_url2": null, "USER_url3": null }, "geometry": { "type": "Point", "coordinates": [ 137.862735074000994, 37.039032282092997 ] } },
{ "type": "Feature", "properties": { "ObjectID": 119, "USER_city_code": 15222, "USER_city_name": "新潟県上越市", "USER_url1": "http:\/\/www.city.joetsu.niigata.jp\/soshiki\/soumukanri\/open-data-portal.html", "USER_url2": null, "USER_url3": null }, "geometry": { "type": "Point", "coordinates": [ 138.23610938200099, 37.147863247091998 ] } },
{ "type": "Feature", "properties": { "ObjectID": 120, "USER_city_code": 16201, "USER_city_name": "富山県富山市", "USER_url1": "http:\/\/opdt.city.toyama.lg.jp\/", "USER_url2": null, "USER_url3": null }, "geometry": { "type": "Point", "coordinates": [ 137.213728413001007, 36.695883999096203 ] } },
{ "type": "Feature", "properties": { "ObjectID": 121, "USER_city_code": 16202, "USER_city_name": "富山県高岡市", "USER_url1": "http:\/\/www.city.takaoka.toyama.jp\/joho\/shise\/opendata\/info.html", "USER_url2": null, "USER_url3": null }, "geometry": { "type": "Point", "coordinates": [ 137.025663423000992, 36.754067786095597 ] } },
{ "type": "Feature", "properties": { "ObjectID": 122, "USER_city_code": 16204, "USER_city_name": "富山県魚津市", "USER_url1": "http:\/\/www.city.uozu.toyama.jp\/event-topics\/svTopiDtl.aspx?servno=3274", "USER_url2": null, "USER_url3": null }, "geometry": { "type": "Point", "coordinates": [ 137.409233490000986, 36.827347653094897 ] } },
{ "type": "Feature", "properties": { "ObjectID": 123, "USER_city_code": 16208, "USER_city_name": "富山県砺波市", "USER_url1": "https:\/\/www.city.tonami.toyama.jp\/info\/1411533258.html", "USER_url2": null, "USER_url3": null }, "geometry": { "type": "Point", "coordinates": [ 136.96200808700101, 36.647523995096599 ] } },
{ "type": "Feature", "properties": { "ObjectID": 124, "USER_city_code": 16210, "USER_city_name": "富山県南砺市", "USER_url1": "http:\/\/opendata.city.nanto.toyama.jp", "USER_url2": null, "USER_url3": null }, "geometry": { "type": "Point", "coordinates": [ 136.919181721000996, 36.587955316097201 ] } },
{ "type": "Feature", "properties": { "ObjectID": 125, "USER_city_code": 17201, "USER_city_name": "石川県金沢市", "USER_url1": "http:\/\/www4.city.kanazawa.lg.jp\/11010\/opendata\/", "USER_url2": "http:\/\/open-imagedata.city.kanazawa.ishikawa.jp\/", "USER_url3": null }, "geometry": { "type": "Point", "coordinates": [ 136.656512653000988, 36.561054498097398 ] } },
{ "type": "Feature", "properties": { "ObjectID": 126, "USER_city_code": 17202, "USER_city_name": "石川県七尾市", "USER_url1": "http:\/\/www.city.nanao.lg.jp\/koho\/shise\/koho\/opendata\/index.html", "USER_url2": null, "USER_url3": null }, "geometry": { "type": "Point", "coordinates": [ 136.967436173001005, 37.043083943092903 ] } },
{ "type": "Feature", "properties": { "ObjectID": 127, "USER_city_code": 17205, "USER_city_name": "石川県珠洲市", "USER_url1": "http:\/\/www.city.suzu.ishikawa.jp\/soumu\/opendata_index.html", "USER_url2": null, "USER_url3": null }, "geometry": { "type": "Point", "coordinates": [ 137.260446134001, 37.436351919089503 ] } },
{ "type": "Feature", "properties": { "ObjectID": 128, "USER_city_code": 17206, "USER_city_name": "石川県加賀市", "USER_url1": "http:\/\/opendata-portal.city.kaga.ishikawa.jp\/www\/index.html", "USER_url2": null, "USER_url3": null }, "geometry": { "type": "Point", "coordinates": [ 136.314912672000986, 36.302689966099898 ] } },
{ "type": "Feature", "properties": { "ObjectID": 129, "USER_city_code": 17210, "USER_city_name": "石川県白山市", "USER_url1": "http:\/\/www.city.hakusan.ishikawa.jp\/kikakusinkoubu\/jouhoutoukei\/open_data\/opendata.html", "USER_url2": null, "USER_url3": null }, "geometry": { "type": "Point", "coordinates": [ 136.565660723001002, 36.514392375097799 ] } },
{ "type": "Feature", "properties": { "ObjectID": 130, "USER_city_code": 17211, "USER_city_name": "石川県能美市", "USER_url1": "http:\/\/www.city.nomi.ishikawa.jp\/chiiki\/NomiVitalization\/opendata.html", "USER_url2": "https:\/\/nomi.podcloud.jp\/ja", "USER_url3": "http:\/\/ultraart.jp\/" }, "geometry": { "type": "Point", "coordinates": [ 136.554091079001012, 36.446984539098501 ] } },
{ "type": "Feature", "properties": { "ObjectID": 131, "USER_city_code": 17212, "USER_city_name": "石川県野々市市", "USER_url1": "http:\/\/www.city.nonoichi.lg.jp\/hisyo\/opendata\/opendata_top.html", "USER_url2": "http:\/\/gm.nono1.jp\/uploads\/opendata.html", "USER_url3": null }, "geometry": { "type": "Point", "coordinates": [ 136.609878753000999, 36.5196144350979 ] } },
{ "type": "Feature", "properties": { "ObjectID": 132, "USER_city_code": 17365, "USER_city_name": "石川県内灘町", "USER_url1": "http:\/\/www.town.uchinada.lg.jp\/webapps\/www\/service\/detail.jsp?id=7789", "USER_url2": null, "USER_url3": null }, "geometry": { "type": "Point", "coordinates": [ 136.645134642001011, 36.653476742096601 ] } },
{ "type": "Feature", "properties": { "ObjectID": 133, "USER_city_code": 18201, "USER_city_name": "福井県福井市", "USER_url1": "http:\/\/www.city.fukui.lg.jp\/sisei\/tokei\/opendata\/opengov.html", "USER_url2": null, "USER_url3": null }, "geometry": { "type": "Point", "coordinates": [ 136.21962355800099, 36.064077425102298 ] } },
{ "type": "Feature", "properties": { "ObjectID": 134, "USER_city_code": 18202, "USER_city_name": "福井県敦賀市", "USER_url1": "http:\/\/www.pref.fukui.lg.jp\/doc\/toukei-jouhou\/opendata\/list_ct.html", "USER_url2": null, "USER_url3": null }, "geometry": { "type": "Point", "coordinates": [ 136.055545103001009, 35.645212804106599 ] } },
{ "type": "Feature", "properties": { "ObjectID": 135, "USER_city_code": 18205, "USER_city_name": "福井県大野市", "USER_url1": "http:\/\/www.pref.fukui.lg.jp\/doc\/toukei-jouhou\/opendata\/list_ct.html", "USER_url2": null, "USER_url3": null }, "geometry": { "type": "Point", "coordinates": [ 136.487489568000996, 35.979866596103101 ] } },
{ "type": "Feature", "properties": { "ObjectID": 136, "USER_city_code": 18206, "USER_city_name": "福井県勝山市", "USER_url1": "http:\/\/www.city.katsuyama.fukui.jp\/docs\/page\/index.php?cd=4080", "USER_url2": null, "USER_url3": null }, "geometry": { "type": "Point", "coordinates": [ 136.500624729001004, 36.060891638102397 ] } },
{ "type": "Feature", "properties": { "ObjectID": 137, "USER_city_code": 18207, "USER_city_name": "福井県鯖江市", "USER_url1": "https:\/\/www.city.sabae.fukui.jp\/about_city\/opendata\/data_list\/xml-opendata.html", "USER_url2": "http:\/\/data.city.sabae.lg.jp\/opendata-list\/", "USER_url3": null }, "geometry": { "type": "Point", "coordinates": [ 136.184214137000993, 35.956479513103403 ] } },
{ "type": "Feature", "properties": { "ObjectID": 138, "USER_city_code": 18208, "USER_city_name": "福井県あわら市", "USER_url1": "http:\/\/www.pref.fukui.lg.jp\/doc\/toukei-jouhou\/opendata\/list_ct.html", "USER_url2": null, "USER_url3": null }, "geometry": { "type": "Point", "coordinates": [ 136.228952313001002, 36.2113379291008 ] } },
{ "type": "Feature", "properties": { "ObjectID": 139, "USER_city_code": 18209, "USER_city_name": "福井県越前市", "USER_url1": "http:\/\/www.city.echizen.lg.jp\/office\/010\/021\/open-data-echizen.html", "USER_url2": null, "USER_url3": null }, "geometry": { "type": "Point", "coordinates": [ 136.168939972000999, 35.903486176103897 ] } },
{ "type": "Feature", "properties": { "ObjectID": 140, "USER_city_code": 18210, "USER_city_name": "福井県坂井市", "USER_url1": "http:\/\/www.city.fukui-sakai.lg.jp\/kikaku\/shisei\/joho\/opendata\/sakaishi-opendata.html", "USER_url2": null, "USER_url3": null }, "geometry": { "type": "Point", "coordinates": [ 136.23148107400101, 36.1669542311013 ] } },
{ "type": "Feature", "properties": { "ObjectID": 141, "USER_city_code": 18322, "USER_city_name": "福井県永平寺町", "USER_url1": "https:\/\/www.town.eiheiji.lg.jp\/900\/905\/p002092.html", "USER_url2": null, "USER_url3": null }, "geometry": { "type": "Point", "coordinates": [ 136.298811015001007, 36.092216094102 ] } },
{ "type": "Feature", "properties": { "ObjectID": 142, "USER_city_code": 18382, "USER_city_name": "福井県池田町", "USER_url1": "http:\/\/www.town.ikeda.fukui.jp\/gyousei\/gyousei\/1937\/p001503.html", "USER_url2": null, "USER_url3": null }, "geometry": { "type": "Point", "coordinates": [ 136.344111388001011, 35.890760245103998 ] } },
{ "type": "Feature", "properties": { "ObjectID": 143, "USER_city_code": 18404, "USER_city_name": "福井県南越前町", "USER_url1": "http:\/\/www.pref.fukui.lg.jp\/doc\/toukei-jouhou\/opendata\/list_ct.html", "USER_url2": null, "USER_url3": null }, "geometry": { "type": "Point", "coordinates": [ 136.19432353500099, 35.834993174104603 ] } },
{ "type": "Feature", "properties": { "ObjectID": 144, "USER_city_code": 18423, "USER_city_name": "福井県越前町", "USER_url1": "http:\/\/www.pref.fukui.lg.jp\/doc\/toukei-jouhou\/opendata\/list_ct.html", "USER_url2": null, "USER_url3": null }, "geometry": { "type": "Point", "coordinates": [ 136.129858487001002, 35.974309250103197 ] } },
{ "type": "Feature", "properties": { "ObjectID": 145, "USER_city_code": 18442, "USER_city_name": "福井県美浜町", "USER_url1": "http:\/\/www.pref.fukui.lg.jp\/doc\/toukei-jouhou\/opendata\/list_ct.html", "USER_url2": null, "USER_url3": null }, "geometry": { "type": "Point", "coordinates": [ 135.940941452000999, 35.600428061107003 ] } },
{ "type": "Feature", "properties": { "ObjectID": 146, "USER_city_code": 18481, "USER_city_name": "福井県高浜町", "USER_url1": "http:\/\/www.pref.fukui.lg.jp\/doc\/toukei-jouhou\/opendata\/list_ct.html", "USER_url2": null, "USER_url3": null }, "geometry": { "type": "Point", "coordinates": [ 135.54578113800099, 35.487908097108203 ] } },
{ "type": "Feature", "properties": { "ObjectID": 147, "USER_city_code": 18483, "USER_city_name": "福井県おおい町", "USER_url1": "http:\/\/www.pref.fukui.lg.jp\/doc\/toukei-jouhou\/opendata\/list_ct.html", "USER_url2": null, "USER_url3": null }, "geometry": { "type": "Point", "coordinates": [ 135.617778562001007, 35.4811143111083 ] } },
{ "type": "Feature", "properties": { "ObjectID": 148, "USER_city_code": 18501, "USER_city_name": "福井県若狭町", "USER_url1": "http:\/\/www.pref.fukui.lg.jp\/doc\/toukei-jouhou\/opendata\/list_ct.html", "USER_url2": null, "USER_url3": null }, "geometry": { "type": "Point", "coordinates": [ 135.908180174000989, 35.548915008107599 ] } },
{ "type": "Feature", "properties": { "ObjectID": 149, "USER_city_code": 19201, "USER_city_name": "山梨県甲府市", "USER_url1": "http:\/\/www.city.kofu.yamanashi.jp\/joho\/publiccomment\/opendeta.html", "USER_url2": null, "USER_url3": null }, "geometry": { "type": "Point", "coordinates": [ 138.568269692000996, 35.662107803106402 ] } },
{ "type": "Feature", "properties": { "ObjectID": 150, "USER_city_code": 20201, "USER_city_name": "長野県長野市", "USER_url1": "https:\/\/www.city.nagano.nagano.jp\/site\/opendata\/", "USER_url2": null, "USER_url3": null }, "geometry": { "type": "Point", "coordinates": [ 138.194761326000986, 36.648585736096599 ] } },
{ "type": "Feature", "properties": { "ObjectID": 151, "USER_city_code": 20204, "USER_city_name": "長野県岡谷市", "USER_url1": "http:\/\/www.city.okaya.lg.jp\/site\/opendata\/", "USER_url2": null, "USER_url3": null }, "geometry": { "type": "Point", "coordinates": [ 138.049327964001009, 36.067068757102298 ] } },
{ "type": "Feature", "properties": { "ObjectID": 152, "USER_city_code": 20207, "USER_city_name": "長野県須坂市", "USER_url1": "http:\/\/opendata.city.suzaka.nagano.jp\/", "USER_url2": null, "USER_url3": null }, "geometry": { "type": "Point", "coordinates": [ 138.307338017001001, 36.6510351900966 ] } },
{ "type": "Feature", "properties": { "ObjectID": 153, "USER_city_code": 20210, "USER_city_name": "長野県駒ヶ根市", "USER_url1": "http:\/\/www.city.komagane.nagano.jp\/index.php?f=&ci=10850&i=15536", "USER_url2": null, "USER_url3": null }, "geometry": { "type": "Point", "coordinates": [ 137.933792679000987, 35.728802167105698 ] } },
{ "type": "Feature", "properties": { "ObjectID": 154, "USER_city_code": 20211, "USER_city_name": "長野県中野市", "USER_url1": "http:\/\/www.city.nakano.nagano.jp\/docs\/opendata\/", "USER_url2": null, "USER_url3": null }, "geometry": { "type": "Point", "coordinates": [ 138.369413443001008, 36.742053916095699 ] } },
{ "type": "Feature", "properties": { "ObjectID": 155, "USER_city_code": 20215, "USER_city_name": "長野県塩尻市", "USER_url1": "http:\/\/www.city.shiojiri.lg.jp\/gyosei\/shisaku\/johoka\/kk144020150928.html", "USER_url2": null, "USER_url3": null }, "geometry": { "type": "Point", "coordinates": [ 137.953472701001004, 36.114976632101801 ] } },
{ "type": "Feature", "properties": { "ObjectID": 156, "USER_city_code": 20382, "USER_city_name": "長野県辰野町", "USER_url1": "http:\/\/www.town.tatsuno.lg.jp\/opendata.html", "USER_url2": null, "USER_url3": null }, "geometry": { "type": "Point", "coordinates": [ 137.987585003000987, 35.982439666103097 ] } },
{ "type": "Feature", "properties": { "ObjectID": 157, "USER_city_code": 21202, "USER_city_name": "岐阜県大垣市", "USER_url1": "https:\/\/www2.city.ogaki.lg.jp\/cgi-bin\/opendata\/db.cgi", "USER_url2": null, "USER_url3": null }, "geometry": { "type": "Point", "coordinates": [ 136.612735745001004, 35.359311031109598 ] } },
{ "type": "Feature", "properties": { "ObjectID": 158, "USER_city_code": 21205, "USER_city_name": "岐阜県関市", "USER_url1": "http:\/\/www.city.seki.lg.jp\/0000010802.html", "USER_url2": null, "USER_url3": null }, "geometry": { "type": "Point", "coordinates": [ 136.917894199001012, 35.495772655108198 ] } },
{ "type": "Feature", "properties": { "ObjectID": 159, "USER_city_code": 21209, "USER_city_name": "岐阜県羽島市", "USER_url1": "http:\/\/www.city.hashima.lg.jp\/0000006330.html", "USER_url2": null, "USER_url3": null }, "geometry": { "type": "Point", "coordinates": [ 136.703366125000997, 35.319899903110098 ] } },
{ "type": "Feature", "properties": { "ObjectID": 160, "USER_city_code": 21214, "USER_city_name": "岐阜県可児市", "USER_url1": "http:\/\/www.city.kani.lg.jp\/12301.htm", "USER_url2": null, "USER_url3": null }, "geometry": { "type": "Point", "coordinates": [ 137.061020913000988, 35.426119979108897 ] } },
{ "type": "Feature", "properties": { "ObjectID": 161, "USER_city_code": 22100, "USER_city_name": "静岡県静岡市", "USER_url1": "http:\/\/open.city.shizuoka.jp\/", "USER_url2": "http:\/\/dataset.city.shizuoka.jp\/", "USER_url3": "http:\/\/opendata-api-wiki-dot-shizuokashi-road.appspot.com\/resourcelist" }, "geometry": { "type": "Point", "coordinates": [ 138.383244295000992, 34.975156187113903 ] } },
{ "type": "Feature", "properties": { "ObjectID": 162, "USER_city_code": 22130, "USER_city_name": "静岡県浜松市", "USER_url1": "https:\/\/www.city.hamamatsu.shizuoka.jp\/koho2\/opendata\/index.html", "USER_url2": null, "USER_url3": null }, "geometry": { "type": "Point", "coordinates": [ 137.726091695001003, 34.710809275116901 ] } },
{ "type": "Feature", "properties": { "ObjectID": 163, "USER_city_code": 22203, "USER_city_name": "静岡県沼津市", "USER_url1": "https:\/\/open-data.pref.shizuoka.jp\/", "USER_url2": null, "USER_url3": null }, "geometry": { "type": "Point", "coordinates": [ 138.863563440001002, 35.095607033112501 ] } },
{ "type": "Feature", "properties": { "ObjectID": 164, "USER_city_code": 22206, "USER_city_name": "静岡県三島市", "USER_url1": "https:\/\/www.city.mishima.shizuoka.jp\/ipn017227.html", "USER_url2": "https:\/\/open-data.pref.shizuoka.jp\/", "USER_url3": null }, "geometry": { "type": "Point", "coordinates": [ 138.918525315001006, 35.1183712391123 ] } },
{ "type": "Feature", "properties": { "ObjectID": 165, "USER_city_code": 22208, "USER_city_name": "静岡県伊東市", "USER_url1": "http:\/\/www.city.ito.shizuoka.jp\/html\/20170322141404.html", "USER_url2": null, "USER_url3": null }, "geometry": { "type": "Point", "coordinates": [ 139.102022449000998, 34.965681802113998 ] } },
{ "type": "Feature", "properties": { "ObjectID": 166, "USER_city_code": 22209, "USER_city_name": "静岡県島田市", "USER_url1": "https:\/\/www.city.shimada.shizuoka.jp\/jouhou\/opendata.html", "USER_url2": "https:\/\/open-data.pref.shizuoka.jp\/", "USER_url3": null }, "geometry": { "type": "Point", "coordinates": [ 138.175988101000996, 34.836380578115502 ] } },
{ "type": "Feature", "properties": { "ObjectID": 167, "USER_city_code": 22210, "USER_city_name": "静岡県富士市", "USER_url1": "https:\/\/open-data.pref.shizuoka.jp\/", "USER_url2": null, "USER_url3": null }, "geometry": { "type": "Point", "coordinates": [ 138.676268367001001, 35.161334203111799 ] } },
{ "type": "Feature", "properties": { "ObjectID": 168, "USER_city_code": 22211, "USER_city_name": "静岡県磐田市", "USER_url1": "https:\/\/www.city.iwata.shizuoka.jp\/shisei\/opendata.php", "USER_url2": "https:\/\/open-data.pref.shizuoka.jp\/", "USER_url3": null }, "geometry": { "type": "Point", "coordinates": [ 137.851509466001005, 34.717853961116802 ] } },
{ "type": "Feature", "properties": { "ObjectID": 169, "USER_city_code": 22212, "USER_city_name": "静岡県焼津市", "USER_url1": "https:\/\/open-data.pref.shizuoka.jp\/", "USER_url2": null, "USER_url3": null }, "geometry": { "type": "Point", "coordinates": [ 138.323279651001002, 34.866888831115098 ] } },
{ "type": "Feature", "properties": { "ObjectID": 170, "USER_city_code": 22213, "USER_city_name": "静岡県掛川市", "USER_url1": "http:\/\/www.city.kakegawa.shizuoka.jp\/city\/jyohosuishin\/seisaku\/opendata\/opendata_kakegawa.html", "USER_url2": null, "USER_url3": null }, "geometry": { "type": "Point", "coordinates": [ 137.998397712001008, 34.768809896116302 ] } },
{ "type": "Feature", "properties": { "ObjectID": 171, "USER_city_code": 22214, "USER_city_name": "静岡県藤枝市", "USER_url1": "https:\/\/open-data.pref.shizuoka.jp\/", "USER_url2": null, "USER_url3": null }, "geometry": { "type": "Point", "coordinates": [ 138.257549376001009, 34.8673866811151 ] } },
{ "type": "Feature", "properties": { "ObjectID": 172, "USER_city_code": 22215, "USER_city_name": "静岡県御殿場市", "USER_url1": "https:\/\/open-data.pref.shizuoka.jp\/", "USER_url2": null, "USER_url3": null }, "geometry": { "type": "Point", "coordinates": [ 138.93485219000101, 35.308652564110197 ] } },
{ "type": "Feature", "properties": { "ObjectID": 173, "USER_city_code": 22216, "USER_city_name": "静岡県袋井市", "USER_url1": "http:\/\/www.city.fukuroi.shizuoka.jp\/opendata\/index.html", "USER_url2": "https:\/\/open-data.pref.shizuoka.jp\/", "USER_url3": null }, "geometry": { "type": "Point", "coordinates": [ 137.924598546000993, 34.750117953116501 ] } },
{ "type": "Feature", "properties": { "ObjectID": 174, "USER_city_code": 22220, "USER_city_name": "静岡県裾野市", "USER_url1": "https:\/\/open-data.pref.shizuoka.jp\/", "USER_url2": null, "USER_url3": null }, "geometry": { "type": "Point", "coordinates": [ 138.90674767000101, 35.173892490111697 ] } },
{ "type": "Feature", "properties": { "ObjectID": 175, "USER_city_code": 22221, "USER_city_name": "静岡県湖西市", "USER_url1": "https:\/\/open-data.pref.shizuoka.jp\/", "USER_url2": null, "USER_url3": null }, "geometry": { "type": "Point", "coordinates": [ 137.53166839600101, 34.718492078116803 ] } },
{ "type": "Feature", "properties": { "ObjectID": 176, "USER_city_code": 22223, "USER_city_name": "静岡県御前崎市", "USER_url1": "http:\/\/www.city.omaezaki.shizuoka.jp\/somu\/shise\/johosesaku\/opendatalist.html", "USER_url2": "https:\/\/open-data.pref.shizuoka.jp\/", "USER_url3": null }, "geometry": { "type": "Point", "coordinates": [ 138.128084459001002, 34.637941179117703 ] } },
{ "type": "Feature", "properties": { "ObjectID": 177, "USER_city_code": 22224, "USER_city_name": "静岡県菊川市", "USER_url1": "https:\/\/open-data.pref.shizuoka.jp\/", "USER_url2": null, "USER_url3": null }, "geometry": { "type": "Point", "coordinates": [ 138.084725531000998, 34.7577841051164 ] } },
{ "type": "Feature", "properties": { "ObjectID": 178, "USER_city_code": 22225, "USER_city_name": "静岡県伊豆の国市", "USER_url1": "https:\/\/www.city.izunokuni.shizuoka.jp\/system\/opendata\/opendata.html", "USER_url2": null, "USER_url3": null }, "geometry": { "type": "Point", "coordinates": [ 138.928914965001013, 35.027714894113302 ] } },
{ "type": "Feature", "properties": { "ObjectID": 179, "USER_city_code": 22226, "USER_city_name": "静岡県牧之原市", "USER_url1": "https:\/\/open-data.pref.shizuoka.jp\/", "USER_url2": null, "USER_url3": null }, "geometry": { "type": "Point", "coordinates": [ 138.224707382000986, 34.740013918116603 ] } },
{ "type": "Feature", "properties": { "ObjectID": 180, "USER_city_code": 22301, "USER_city_name": "静岡県東伊豆町", "USER_url1": "https:\/\/open-data.pref.shizuoka.jp\/", "USER_url2": null, "USER_url3": null }, "geometry": { "type": "Point", "coordinates": [ 139.041274623000987, 34.772769269116203 ] } },
{ "type": "Feature", "properties": { "ObjectID": 181, "USER_city_code": 22304, "USER_city_name": "静岡県南伊豆町", "USER_url1": "https:\/\/open-data.pref.shizuoka.jp\/", "USER_url2": null, "USER_url3": null }, "geometry": { "type": "Point", "coordinates": [ 138.858002143000988, 34.651175119117603 ] } },
{ "type": "Feature", "properties": { "ObjectID": 182, "USER_city_code": 22325, "USER_city_name": "静岡県函南町", "USER_url1": "https:\/\/open-data.pref.shizuoka.jp\/", "USER_url2": null, "USER_url3": null }, "geometry": { "type": "Point", "coordinates": [ 138.953440273001007, 35.088928960112597 ] } },
{ "type": "Feature", "properties": { "ObjectID": 183, "USER_city_code": 22342, "USER_city_name": "静岡県長泉町", "USER_url1": "https:\/\/open-data.pref.shizuoka.jp\/", "USER_url2": null, "USER_url3": null }, "geometry": { "type": "Point", "coordinates": [ 138.897110157001009, 35.137618606112099 ] } },
{ "type": "Feature", "properties": { "ObjectID": 184, "USER_city_code": 22344, "USER_city_name": "静岡県小山町", "USER_url1": "https:\/\/open-data.pref.shizuoka.jp\/", "USER_url2": null, "USER_url3": null }, "geometry": { "type": "Point", "coordinates": [ 138.987482582001007, 35.360091955109702 ] } },
{ "type": "Feature", "properties": { "ObjectID": 185, "USER_city_code": 22424, "USER_city_name": "静岡県吉田町", "USER_url1": "https:\/\/open-data.pref.shizuoka.jp\/", "USER_url2": null, "USER_url3": null }, "geometry": { "type": "Point", "coordinates": [ 138.251984410001, 34.770871852116201 ] } },
{ "type": "Feature", "properties": { "ObjectID": 186, "USER_city_code": 22429, "USER_city_name": "静岡県川根本町", "USER_url1": "http:\/\/www.town.kawanehon.shizuoka.jp\/chosei\/10\/2\/3940.html", "USER_url2": null, "USER_url3": null }, "geometry": { "type": "Point", "coordinates": [ 138.081853017001009, 35.046856425113099 ] } },
{ "type": "Feature", "properties": { "ObjectID": 187, "USER_city_code": 23100, "USER_city_name": "愛知県名古屋市", "USER_url1": "http:\/\/www.city.nagoya.jp\/shisei\/category\/388-1-0-0-0-0-0-0-0-0.html", "USER_url2": null, "USER_url3": null }, "geometry": { "type": "Point", "coordinates": [ 136.906683266001011, 35.181420350111601 ] } },
{ "type": "Feature", "properties": { "ObjectID": 188, "USER_city_code": 23201, "USER_city_name": "愛知県豊橋市", "USER_url1": "http:\/\/www.city.toyohashi.lg.jp\/16399.htm", "USER_url2": null, "USER_url3": null }, "geometry": { "type": "Point", "coordinates": [ 137.391565187000992, 34.769234931116202 ] } },
{ "type": "Feature", "properties": { "ObjectID": 189, "USER_city_code": 23202, "USER_city_name": "愛知県岡崎市", "USER_url1": "http:\/\/www.city.okazaki.lg.jp\/1550\/1552\/1583\/p015630.html", "USER_url2": null, "USER_url3": null }, "geometry": { "type": "Point", "coordinates": [ 137.173078306001003, 34.954845104114099 ] } },
{ "type": "Feature", "properties": { "ObjectID": 190, "USER_city_code": 23203, "USER_city_name": "愛知県一宮市", "USER_url1": "http:\/\/www.city.ichinomiya.aichi.jp\/opendata\/index.html", "USER_url2": null, "USER_url3": null }, "geometry": { "type": "Point", "coordinates": [ 136.802923087001005, 35.303897873110301 ] } },
{ "type": "Feature", "properties": { "ObjectID": 191, "USER_city_code": 23204, "USER_city_name": "愛知県瀬戸市", "USER_url1": "http:\/\/www.city.seto.aichi.jp\/docs\/2017071500016\/", "USER_url2": null, "USER_url3": null }, "geometry": { "type": "Point", "coordinates": [ 137.084026707000987, 35.223741528111098 ] } },
{ "type": "Feature", "properties": { "ObjectID": 192, "USER_city_code": 23205, "USER_city_name": "愛知県半田市", "USER_url1": "http:\/\/www.city.handa.lg.jp\/shise\/johoseisaku\/opendata\/index.html", "USER_url2": null, "USER_url3": null }, "geometry": { "type": "Point", "coordinates": [ 136.937914023001014, 34.8917116071149 ] } },
{ "type": "Feature", "properties": { "ObjectID": 193, "USER_city_code": 23210, "USER_city_name": "愛知県刈谷市", "USER_url1": "https:\/\/www.city.kariya.lg.jp\/shisei\/opendata\/index.html", "USER_url2": null, "USER_url3": null }, "geometry": { "type": "Point", "coordinates": [ 137.002318391001012, 34.989313577113698 ] } },
{ "type": "Feature", "properties": { "ObjectID": 194, "USER_city_code": 23211, "USER_city_name": "愛知県豊田市", "USER_url1": "http:\/\/www.city.toyota.aichi.jp\/shisei\/joho\/kokaihogo\/1018965\/index.html", "USER_url2": null, "USER_url3": null }, "geometry": { "type": "Point", "coordinates": [ 137.156276724001003, 35.0825144881127 ] } },
{ "type": "Feature", "properties": { "ObjectID": 195, "USER_city_code": 23213, "USER_city_name": "愛知県西尾市", "USER_url1": "http:\/\/www.city.nishio.aichi.jp\/index.cfm\/10,0,105,686,html#jinko", "USER_url2": null, "USER_url3": null }, "geometry": { "type": "Point", "coordinates": [ 137.061899206000987, 34.861936017115198 ] } },
{ "type": "Feature", "properties": { "ObjectID": 196, "USER_city_code": 23215, "USER_city_name": "愛知県犬山市", "USER_url1": "http:\/\/www.city.inuyama.aichi.jp\/shisei\/toukei\/1003763.html", "USER_url2": null, "USER_url3": null }, "geometry": { "type": "Point", "coordinates": [ 136.944532828001002, 35.378620488109398 ] } },
{ "type": "Feature", "properties": { "ObjectID": 197, "USER_city_code": 23217, "USER_city_name": "愛知県江南市", "USER_url1": "http:\/\/www.city.konan.lg.jp\/chiiki_kyodo\/opendata\/opendata.html", "USER_url2": null, "USER_url3": null }, "geometry": { "type": "Point", "coordinates": [ 136.870541183000995, 35.332068716110001 ] } },
{ "type": "Feature", "properties": { "ObjectID": 198, "USER_city_code": 23219, "USER_city_name": "愛知県小牧市", "USER_url1": "http:\/\/www.city.komaki.aichi.jp\/12118\/index.html", "USER_url2": null, "USER_url3": null }, "geometry": { "type": "Point", "coordinates": [ 136.910978208001012, 35.290291956110401 ] } },
{ "type": "Feature", "properties": { "ObjectID": 199, "USER_city_code": 23224, "USER_city_name": "愛知県知多市", "USER_url1": "http:\/\/www.city.chita.lg.jp\/docs\/2016052400062\/", "USER_url2": null, "USER_url3": null }, "geometry": { "type": "Point", "coordinates": [ 136.864359549000994, 34.996662223113702 ] } },
{ "type": "Feature", "properties": { "ObjectID": 200, "USER_city_code": 23225, "USER_city_name": "愛知県知立市", "USER_url1": "http:\/\/www.city.chiryu.aichi.jp\/shisei\/opendata\/", "USER_url2": null, "USER_url3": null }, "geometry": { "type": "Point", "coordinates": [ 137.050746130000988, 35.001298378113603 ] } },
{ "type": "Feature", "properties": { "ObjectID": 201, "USER_city_code": 23226, "USER_city_name": "愛知県尾張旭市", "USER_url1": "http:\/\/www.city.owariasahi.lg.jp\/sisei\/data\/opendata.html", "USER_url2": null, "USER_url3": null }, "geometry": { "type": "Point", "coordinates": [ 137.035420036001, 35.216530609111203 ] } },
{ "type": "Feature", "properties": { "ObjectID": 202, "USER_city_code": 23228, "USER_city_name": "愛知県岩倉市", "USER_url1": "http:\/\/www.city.iwakura.aichi.jp\/0000002334.html", "USER_url2": null, "USER_url3": null }, "geometry": { "type": "Point", "coordinates": [ 136.871404800000988, 35.279518759110601 ] } },
{ "type": "Feature", "properties": { "ObjectID": 203, "USER_city_code": 23229, "USER_city_name": "愛知県豊明市", "USER_url1": "http:\/\/www.city.toyoake.lg.jp\/kikaku\/joho\/opendata.htm", "USER_url2": null, "USER_url3": null }, "geometry": { "type": "Point", "coordinates": [ 137.012859033001007, 35.053723873113 ] } },
{ "type": "Feature", "properties": { "ObjectID": 204, "USER_city_code": 23230, "USER_city_name": "愛知県日進市", "USER_url1": "http:\/\/www.city.nisshin.lg.jp\/seisaku\/toukei\/18979\/index.html", "USER_url2": null, "USER_url3": null }, "geometry": { "type": "Point", "coordinates": [ 137.039449965001012, 35.131986752112198 ] } },
{ "type": "Feature", "properties": { "ObjectID": 205, "USER_city_code": 23236, "USER_city_name": "愛知県みよし市", "USER_url1": "http:\/\/www.city.aichi-miyoshi.lg.jp\/shisei\/opendata\/7shimachi-opendata.html", "USER_url2": null, "USER_url3": null }, "geometry": { "type": "Point", "coordinates": [ 137.074865877001002, 35.089432172112602 ] } },
{ "type": "Feature", "properties": { "ObjectID": 206, "USER_city_code": 23238, "USER_city_name": "愛知県長久手市", "USER_url1": "https:\/\/www.city.nagakute.lg.jp\/jyouhou\/opendata.html", "USER_url2": null, "USER_url3": null }, "geometry": { "type": "Point", "coordinates": [ 137.048634502000994, 35.184061438111598 ] } },
{ "type": "Feature", "properties": { "ObjectID": 207, "USER_city_code": 23302, "USER_city_name": "愛知県東郷町", "USER_url1": "https:\/\/www.town.aichi-togo.lg.jp\/kikaku\/toukei\/chousei\/toukei\/od\/od2.html", "USER_url2": null, "USER_url3": null }, "geometry": { "type": "Point", "coordinates": [ 137.05258823100101, 35.096824563112499 ] } },
{ "type": "Feature", "properties": { "ObjectID": 208, "USER_city_code": 23442, "USER_city_name": "愛知県東浦町", "USER_url1": "http:\/\/opendata.town.aichi-higashiura.lg.jp\/", "USER_url2": "http:\/\/open-imagedata.town.aichi-higashiura.lg.jp\/", "USER_url3": null }, "geometry": { "type": "Point", "coordinates": [ 136.965542142000999, 34.977112308113902 ] } },
{ "type": "Feature", "properties": { "ObjectID": 209, "USER_city_code": 24201, "USER_city_name": "三重県津市", "USER_url1": "http:\/\/www.info.city.tsu.mie.jp\/www\/contents\/1001000000855\/index.html", "USER_url2": null, "USER_url3": null }, "geometry": { "type": "Point", "coordinates": [ 136.505676887000988, 34.718603558116797 ] } },
{ "type": "Feature", "properties": { "ObjectID": 210, "USER_city_code": 24202, "USER_city_name": "三重県四日市市", "USER_url1": "http:\/\/www5.city.yokkaichi.mie.jp\/www\/genre\/1487307955678\/index.html", "USER_url2": null, "USER_url3": null }, "geometry": { "type": "Point", "coordinates": [ 136.624440293000987, 34.965133152113999 ] } },
{ "type": "Feature", "properties": { "ObjectID": 211, "USER_city_code": 24203, "USER_city_name": "三重県伊勢市", "USER_url1": "http:\/\/www.city.ise.mie.jp\/14504.htm", "USER_url2": null, "USER_url3": null }, "geometry": { "type": "Point", "coordinates": [ 136.709277385001002, 34.487469770119503 ] } },
{ "type": "Feature", "properties": { "ObjectID": 212, "USER_city_code": 24205, "USER_city_name": "三重県桑名市", "USER_url1": "http:\/\/www.opendata.city.kuwana.lg.jp", "USER_url2": null, "USER_url3": null }, "geometry": { "type": "Point", "coordinates": [ 136.683682152001012, 35.062262955112899 ] } },
{ "type": "Feature", "properties": { "ObjectID": 213, "USER_city_code": 24214, "USER_city_name": "三重県いなべ市", "USER_url1": "http:\/\/www.city.inabe.mie.jp\/opendata\/index.html", "USER_url2": null, "USER_url3": null }, "geometry": { "type": "Point", "coordinates": [ 136.561442547001008, 35.115700236112303 ] } },
{ "type": "Feature", "properties": { "ObjectID": 214, "USER_city_code": 24215, "USER_city_name": "三重県志摩市", "USER_url1": "https:\/\/www.city.shima.mie.jp\/opendate\/index.html", "USER_url2": null, "USER_url3": null }, "geometry": { "type": "Point", "coordinates": [ 136.82971553000101, 34.328155883121397 ] } },
{ "type": "Feature", "properties": { "ObjectID": 215, "USER_city_code": 25201, "USER_city_name": "滋賀県大津市", "USER_url1": "http:\/\/www.city.otsu.lg.jp\/opendata\/", "USER_url2": "http:\/\/od.city.otsu.lg.jp\/", "USER_url3": null }, "geometry": { "type": "Point", "coordinates": [ 135.854681367001007, 35.017752537113402 ] } },
{ "type": "Feature", "properties": { "ObjectID": 216, "USER_city_code": 25203, "USER_city_name": "滋賀県長浜市", "USER_url1": "http:\/\/www.city.nagahama.lg.jp\/0000000798.html", "USER_url2": null, "USER_url3": null }, "geometry": { "type": "Point", "coordinates": [ 136.278616492000992, 35.3807479201094 ] } },
{ "type": "Feature", "properties": { "ObjectID": 217, "USER_city_code": 25206, "USER_city_name": "滋賀県草津市", "USER_url1": "https:\/\/kusatsu.geocloud.jp\/webgis\/Resource\/OpenData\/index.html", "USER_url2": null, "USER_url3": null }, "geometry": { "type": "Point", "coordinates": [ 135.959948643001013, 35.013144323113401 ] } },
{ "type": "Feature", "properties": { "ObjectID": 218, "USER_city_code": 25209, "USER_city_name": "滋賀県甲賀市", "USER_url1": "http:\/\/www.city.koka.lg.jp\/opendata\/", "USER_url2": null, "USER_url3": null }, "geometry": { "type": "Point", "coordinates": [ 136.16706852000101, 34.966152558113997 ] } },
{ "type": "Feature", "properties": { "ObjectID": 219, "USER_city_code": 26100, "USER_city_name": "京都府京都市", "USER_url1": "https:\/\/data.city.kyoto.lg.jp\/", "USER_url2": null, "USER_url3": null }, "geometry": { "type": "Point", "coordinates": [ 135.768161351000998, 35.011696777113499 ] } },
{ "type": "Feature", "properties": { "ObjectID": 220, "USER_city_code": 26209, "USER_city_name": "京都府長岡京市", "USER_url1": "http:\/\/www.city.nagaokakyo.lg.jp\/0000006819.html", "USER_url2": null, "USER_url3": null }, "geometry": { "type": "Point", "coordinates": [ 135.695750746001011, 34.9267865871144 ] } },
{ "type": "Feature", "properties": { "ObjectID": 221, "USER_city_code": 27100, "USER_city_name": "大阪府大阪市", "USER_url1": "https:\/\/data.city.osaka.lg.jp\/", "USER_url2": null, "USER_url3": null }, "geometry": { "type": "Point", "coordinates": [ 135.502161713000987, 34.693726030117098 ] } },
{ "type": "Feature", "properties": { "ObjectID": 222, "USER_city_code": 27140, "USER_city_name": "大阪府堺市", "USER_url1": "http:\/\/www.city.sakai.lg.jp\/shisei\/gyosei\/open_data\/index.html", "USER_url2": null, "USER_url3": null }, "geometry": { "type": "Point", "coordinates": [ 135.482971356001002, 34.573294376118497 ] } },
{ "type": "Feature", "properties": { "ObjectID": 223, "USER_city_code": 27206, "USER_city_name": "大阪府泉大津市", "USER_url1": "http:\/\/www.city.izumiotsu.lg.jp\/kakuka\/somu\/somu\/johosystem\/opendata\/1456451820235.html", "USER_url2": null, "USER_url3": null }, "geometry": { "type": "Point", "coordinates": [ 135.410507692001005, 34.504301549119297 ] } },
{ "type": "Feature", "properties": { "ObjectID": 224, "USER_city_code": 27207, "USER_city_name": "大阪府高槻市", "USER_url1": "http:\/\/www.city.takatsuki.osaka.jp\/kakuka\/soumu\/itseisak\/gyomuannai\/opendata\/opendata.html", "USER_url2": null, "USER_url3": null }, "geometry": { "type": "Point", "coordinates": [ 135.617287203001013, 34.845960516115397 ] } },
{ "type": "Feature", "properties": { "ObjectID": 225, "USER_city_code": 27210, "USER_city_name": "大阪府枚方市", "USER_url1": "http:\/\/www.city.hirakata.osaka.jp\/category\/6-15-0-0-0.html", "USER_url2": null, "USER_url3": null }, "geometry": { "type": "Point", "coordinates": [ 135.650785660000992, 34.814436525115703 ] } },
{ "type": "Feature", "properties": { "ObjectID": 226, "USER_city_code": 27211, "USER_city_name": "大阪府茨木市", "USER_url1": "http:\/\/www.city.ibaraki.osaka.jp\/opendata\/opendata.html", "USER_url2": null, "USER_url3": null }, "geometry": { "type": "Point", "coordinates": [ 135.568542523001014, 34.816324064115697 ] } },
{ "type": "Feature", "properties": { "ObjectID": 227, "USER_city_code": 27214, "USER_city_name": "大阪府富田林市", "USER_url1": "http:\/\/www.city.tondabayashi.osaka.jp\/map\/1050\/download.html", "USER_url2": "http:\/\/www.city.tondabayashi.osaka.jp\/public\/section\/gesuidou\/45_gesuid_data.html", "USER_url3": null }, "geometry": { "type": "Point", "coordinates": [ 135.597212627000999, 34.4994435631193 ] } },
{ "type": "Feature", "properties": { "ObjectID": 228, "USER_city_code": 27216, "USER_city_name": "大阪府河内長野市", "USER_url1": "http:\/\/www.city.kawachinagano.lg.jp\/kakuka\/soumu\/soumu\/gyoumu\/1482815912049.html", "USER_url2": null, "USER_url3": null }, "geometry": { "type": "Point", "coordinates": [ 135.564272417001007, 34.458030595119901 ] } },
{ "type": "Feature", "properties": { "ObjectID": 229, "USER_city_code": 27227, "USER_city_name": "大阪府東大阪市", "USER_url1": "http:\/\/www.city.higashiosaka.lg.jp\/0000019138.html", "USER_url2": null, "USER_url3": null }, "geometry": { "type": "Point", "coordinates": [ 135.601013952001011, 34.679395635117302 ] } },
{ "type": "Feature", "properties": { "ObjectID": 230, "USER_city_code": 28100, "USER_city_name": "兵庫県神戸市", "USER_url1": "https:\/\/data.city.kobe.lg.jp\/", "USER_url2": null, "USER_url3": null }, "geometry": { "type": "Point", "coordinates": [ 135.195743677000991, 34.6894158481171 ] } },
{ "type": "Feature", "properties": { "ObjectID": 231, "USER_city_code": 28201, "USER_city_name": "兵庫県姫路市", "USER_url1": "http:\/\/www.city.himeji.lg.jp\/s20\/2212162\/_35926.html", "USER_url2": null, "USER_url3": null }, "geometry": { "type": "Point", "coordinates": [ 134.685457309001009, 34.815423475115701 ] } },
{ "type": "Feature", "properties": { "ObjectID": 232, "USER_city_code": 28202, "USER_city_name": "兵庫県尼崎市", "USER_url1": "http:\/\/data.city.amagasaki.hyogo.jp\/", "USER_url2": null, "USER_url3": null }, "geometry": { "type": "Point", "coordinates": [ 135.406364307001013, 34.733774992116601 ] } },
{ "type": "Feature", "properties": { "ObjectID": 233, "USER_city_code": 28204, "USER_city_name": "兵庫県西宮市", "USER_url1": "http:\/\/opendata.nishi.or.jp\/opendata\/Menu.aspx", "USER_url2": null, "USER_url3": null }, "geometry": { "type": "Point", "coordinates": [ 135.341729641000995, 34.737607080116597 ] } },
{ "type": "Feature", "properties": { "ObjectID": 234, "USER_city_code": 28206, "USER_city_name": "兵庫県芦屋市", "USER_url1": "http:\/\/www.city.ashiya.lg.jp\/jouhou\/opendata.html", "USER_url2": null, "USER_url3": null }, "geometry": { "type": "Point", "coordinates": [ 135.304122231001003, 34.726690794116699 ] } },
{ "type": "Feature", "properties": { "ObjectID": 235, "USER_city_code": 28210, "USER_city_name": "兵庫県加古川市", "USER_url1": "https:\/\/www.opendata-kakogawa.jp", "USER_url2": null, "USER_url3": null }, "geometry": { "type": "Point", "coordinates": [ 134.841301487001004, 34.756960847116403 ] } },
{ "type": "Feature", "properties": { "ObjectID": 236, "USER_city_code": 28214, "USER_city_name": "兵庫県宝塚市", "USER_url1": "http:\/\/www.city.takarazuka.hyogo.jp\/1014984\/index.html", "USER_url2": null, "USER_url3": null }, "geometry": { "type": "Point", "coordinates": [ 135.360366267001012, 34.800016663115898 ] } },
{ "type": "Feature", "properties": { "ObjectID": 237, "USER_city_code": 28217, "USER_city_name": "兵庫県川西市", "USER_url1": "http:\/\/www.city.kawanishi.hyogo.jp\/gyozaisei\/017646.html", "USER_url2": null, "USER_url3": null }, "geometry": { "type": "Point", "coordinates": [ 135.417194514001011, 34.830097906115498 ] } },
{ "type": "Feature", "properties": { "ObjectID": 238, "USER_city_code": 28219, "USER_city_name": "兵庫県三田市", "USER_url1": "http:\/\/www.city.sanda.lg.jp\/shiseijouhou\/sonohoka\/opendata\/datateikyo.html", "USER_url2": null, "USER_url3": null }, "geometry": { "type": "Point", "coordinates": [ 135.225439114001006, 34.890032916114798 ] } },
{ "type": "Feature", "properties": { "ObjectID": 239, "USER_city_code": 29201, "USER_city_name": "奈良県奈良市", "USER_url1": "http:\/\/www.city.nara.lg.jp\/www\/contents\/1400827150843\/index.html", "USER_url2": null, "USER_url3": null }, "geometry": { "type": "Point", "coordinates": [ 135.804829507000989, 34.685091555117197 ] } },
{ "type": "Feature", "properties": { "ObjectID": 240, "USER_city_code": 29204, "USER_city_name": "奈良県天理市", "USER_url1": "http:\/\/www.city.tenri.nara.jp\/kakuka\/soumubu\/jouhouseisakuka\/1425528872138.html", "USER_url2": null, "USER_url3": null }, "geometry": { "type": "Point", "coordinates": [ 135.837355971000989, 34.5966295301182 ] } },
{ "type": "Feature", "properties": { "ObjectID": 241, "USER_city_code": 29209, "USER_city_name": "奈良県生駒市", "USER_url1": "http:\/\/www.city.ikoma.lg.jp\/opendata\/0opendata_1.html", "USER_url2": "https:\/\/data.city.ikoma.lg.jp\/", "USER_url3": null }, "geometry": { "type": "Point", "coordinates": [ 135.700587848000993, 34.691978758117102 ] } },
{ "type": "Feature", "properties": { "ObjectID": 242, "USER_city_code": 29211, "USER_city_name": "奈良県葛城市", "USER_url1": "http:\/\/www.city.katsuragi.nara.jp\/index.cfm\/21,16780,68,html", "USER_url2": null, "USER_url3": null }, "geometry": { "type": "Point", "coordinates": [ 135.726534736001014, 34.489168216119502 ] } },
{ "type": "Feature", "properties": { "ObjectID": 243, "USER_city_code": 29212, "USER_city_name": "奈良県宇陀市", "USER_url1": "http:\/\/www.city.uda.nara.jp\/kouhoujouhou\/databank\/od.html", "USER_url2": null, "USER_url3": null }, "geometry": { "type": "Point", "coordinates": [ 135.952376755001012, 34.527973118119 ] } },
{ "type": "Feature", "properties": { "ObjectID": 244, "USER_city_code": 29362, "USER_city_name": "奈良県三宅町", "USER_url1": "https:\/\/www.town.miyake.lg.jp\/opendata\/opendata.html", "USER_url2": null, "USER_url3": null }, "geometry": { "type": "Point", "coordinates": [ 135.77314069500099, 34.573686673118502 ] } },
{ "type": "Feature", "properties": { "ObjectID": 245, "USER_city_code": 30202, "USER_city_name": "和歌山県海南市", "USER_url1": "http:\/\/www.city.kainan.lg.jp\/business\/1411525750773.html", "USER_url2": null, "USER_url3": null }, "geometry": { "type": "Point", "coordinates": [ 135.209224849001004, 34.155254707123497 ] } },
{ "type": "Feature", "properties": { "ObjectID": 246, "USER_city_code": 30203, "USER_city_name": "和歌山県橋本市", "USER_url1": "http:\/\/www.city.hashimoto.lg.jp\/shisei\/hashimotoshinitsuite\/toukei\/opendata\/", "USER_url2": null, "USER_url3": null }, "geometry": { "type": "Point", "coordinates": [ 135.605353486001007, 34.314880173121502 ] } },
{ "type": "Feature", "properties": { "ObjectID": 247, "USER_city_code": 31201, "USER_city_name": "鳥取県鳥取市", "USER_url1": "http:\/\/www.city.tottori.lg.jp\/www\/contents\/1484885510512\/index.html", "USER_url2": null, "USER_url3": null }, "geometry": { "type": "Point", "coordinates": [ 134.235090993000995, 35.501120306108099 ] } },
{ "type": "Feature", "properties": { "ObjectID": 248, "USER_city_code": 32201, "USER_city_name": "島根県松江市", "USER_url1": "http:\/\/ntoukei.city.matsue.shimane.jp\/", "USER_url2": "http:\/\/map2.opendata-matsue.jp\/", "USER_url3": "http:\/\/mob.tpj.co.jp\/" }, "geometry": { "type": "Point", "coordinates": [ 133.048529684001011, 35.468183765108499 ] } },
{ "type": "Feature", "properties": { "ObjectID": 249, "USER_city_code": 32206, "USER_city_name": "島根県安来市", "USER_url1": "http:\/\/yasugi.od-db.jp\/", "USER_url2": "http:\/\/yasugi.od-db.jp\/db\/", "USER_url3": null }, "geometry": { "type": "Point", "coordinates": [ 133.250854795001004, 35.431465655108902 ] } },
{ "type": "Feature", "properties": { "ObjectID": 250, "USER_city_code": 33100, "USER_city_name": "岡山県岡山市", "USER_url1": "http:\/\/www.okayama-opendata.jp\/", "USER_url2": null, "USER_url3": null }, "geometry": { "type": "Point", "coordinates": [ 133.919702066001008, 34.655148039117599 ] } },
{ "type": "Feature", "properties": { "ObjectID": 251, "USER_city_code": 33202, "USER_city_name": "岡山県倉敷市", "USER_url1": "http:\/\/dataeye.jp\/", "USER_url2": null, "USER_url3": null }, "geometry": { "type": "Point", "coordinates": [ 133.771964032000994, 34.585096294118401 ] } },
{ "type": "Feature", "properties": { "ObjectID": 252, "USER_city_code": 33203, "USER_city_name": "岡山県津山市", "USER_url1": "https:\/\/www.city.tsuyama.lg.jp\/life\/index2.php?id=5530", "USER_url2": null, "USER_url3": null }, "geometry": { "type": "Point", "coordinates": [ 134.004514322001, 35.069189388112903 ] } },
{ "type": "Feature", "properties": { "ObjectID": 253, "USER_city_code": 33204, "USER_city_name": "岡山県玉野市", "USER_url1": "http:\/\/www.city.tamano.lg.jp\/docs\/2014030500018\/", "USER_url2": null, "USER_url3": null }, "geometry": { "type": "Point", "coordinates": [ 133.945980854000993, 34.491944772119403 ] } },
{ "type": "Feature", "properties": { "ObjectID": 254, "USER_city_code": 33205, "USER_city_name": "岡山県笠岡市", "USER_url1": "http:\/\/dataeye.jp\/", "USER_url2": null, "USER_url3": null }, "geometry": { "type": "Point", "coordinates": [ 133.507434800000993, 34.5071596701193 ] } },
{ "type": "Feature", "properties": { "ObjectID": 255, "USER_city_code": 33207, "USER_city_name": "岡山県井原市", "USER_url1": "http:\/\/dataeye.jp\/", "USER_url2": null, "USER_url3": null }, "geometry": { "type": "Point", "coordinates": [ 133.46376993700099, 34.5976517591182 ] } },
{ "type": "Feature", "properties": { "ObjectID": 256, "USER_city_code": 33208, "USER_city_name": "岡山県総社市", "USER_url1": "http:\/\/dataeye.jp\/", "USER_url2": null, "USER_url3": null }, "geometry": { "type": "Point", "coordinates": [ 133.746492133000999, 34.672809568117401 ] } },
{ "type": "Feature", "properties": { "ObjectID": 257, "USER_city_code": 33209, "USER_city_name": "岡山県高梁市", "USER_url1": "http:\/\/dataeye.jp\/", "USER_url2": null, "USER_url3": null }, "geometry": { "type": "Point", "coordinates": [ 133.616781960000992, 34.790995818116002 ] } },
{ "type": "Feature", "properties": { "ObjectID": 258, "USER_city_code": 33210, "USER_city_name": "岡山県新見市", "USER_url1": "http:\/\/dataeye.jp\/", "USER_url2": null, "USER_url3": null }, "geometry": { "type": "Point", "coordinates": [ 133.470319596000991, 34.977062354113798 ] } },
{ "type": "Feature", "properties": { "ObjectID": 259, "USER_city_code": 33216, "USER_city_name": "岡山県浅口市", "USER_url1": "http:\/\/dataeye.jp\/", "USER_url2": null, "USER_url3": null }, "geometry": { "type": "Point", "coordinates": [ 133.58495626700099, 34.527879983119099 ] } },
{ "type": "Feature", "properties": { "ObjectID": 260, "USER_city_code": 33423, "USER_city_name": "岡山県早島町", "USER_url1": "http:\/\/dataeye.jp\/", "USER_url2": null, "USER_url3": null }, "geometry": { "type": "Point", "coordinates": [ 133.828375147000997, 34.600651557118198 ] } },
{ "type": "Feature", "properties": { "ObjectID": 261, "USER_city_code": 33445, "USER_city_name": "岡山県里庄町", "USER_url1": "http:\/\/www.okayama-opendata.jp\/", "USER_url2": "http:\/\/dataeye.jp\/", "USER_url3": null }, "geometry": { "type": "Point", "coordinates": [ 133.556903677001003, 34.513770008119202 ] } },
{ "type": "Feature", "properties": { "ObjectID": 262, "USER_city_code": 33461, "USER_city_name": "岡山県矢掛町", "USER_url1": "http:\/\/dataeye.jp\/", "USER_url2": null, "USER_url3": null }, "geometry": { "type": "Point", "coordinates": [ 133.587093014000999, 34.627509195117902 ] } },
{ "type": "Feature", "properties": { "ObjectID": 263, "USER_city_code": 34100, "USER_city_name": "広島県広島市", "USER_url1": "http:\/\/www.city.hiroshima.lg.jp\/www\/opendatamain\/index.html", "USER_url2": null, "USER_url3": null }, "geometry": { "type": "Point", "coordinates": [ 132.455341178000992, 34.385244062120698 ] } },
{ "type": "Feature", "properties": { "ObjectID": 264, "USER_city_code": 34202, "USER_city_name": "広島県呉市", "USER_url1": "https:\/\/www.city.kure.lg.jp\/soshiki\/36\/opendata-index.html", "USER_url2": null, "USER_url3": null }, "geometry": { "type": "Point", "coordinates": [ 132.565376973001008, 34.248975482122397 ] } },
{ "type": "Feature", "properties": { "ObjectID": 265, "USER_city_code": 34207, "USER_city_name": "広島県福山市", "USER_url1": "http:\/\/www.city.fukuyama.hiroshima.jp\/site\/opendata\/", "USER_url2": null, "USER_url3": null }, "geometry": { "type": "Point", "coordinates": [ 133.362420264001003, 34.485885061119497 ] } },
{ "type": "Feature", "properties": { "ObjectID": 266, "USER_city_code": 34212, "USER_city_name": "広島県東広島市", "USER_url1": "http:\/\/www.city.higashihiroshima.lg.jp\/opendata\/index.html", "USER_url2": null, "USER_url3": null }, "geometry": { "type": "Point", "coordinates": [ 132.743254388000992, 34.4263855281202 ] } },
{ "type": "Feature", "properties": { "ObjectID": 267, "USER_city_code": 34215, "USER_city_name": "広島県江田島市", "USER_url1": "http:\/\/www.city.etajima.hiroshima.jp\/cms\/articles\/show\/4457", "USER_url2": null, "USER_url3": null }, "geometry": { "type": "Point", "coordinates": [ 132.462225841000986, 34.174973395123203 ] } },
{ "type": "Feature", "properties": { "ObjectID": 268, "USER_city_code": 35202, "USER_city_name": "山口県宇部市", "USER_url1": "http:\/\/odcs.bodik.jp\/352021\/", "USER_url2": null, "USER_url3": null }, "geometry": { "type": "Point", "coordinates": [ 131.246787555000992, 33.951516765125902 ] } },
{ "type": "Feature", "properties": { "ObjectID": 269, "USER_city_code": 35203, "USER_city_name": "山口県山口市", "USER_url1": "http:\/\/aac-omap.com\/ygmapdoc\/?page_id=44", "USER_url2": null, "USER_url3": null }, "geometry": { "type": "Point", "coordinates": [ 131.473789812001002, 34.178526077123202 ] } },
{ "type": "Feature", "properties": { "ObjectID": 270, "USER_city_code": 35206, "USER_city_name": "山口県防府市", "USER_url1": "http:\/\/www.city.hofu.yamaguchi.jp\/soshiki\/7\/opendatatorikumi.html", "USER_url2": null, "USER_url3": null }, "geometry": { "type": "Point", "coordinates": [ 131.562508382000999, 34.051761233124701 ] } },
{ "type": "Feature", "properties": { "ObjectID": 271, "USER_city_code": 35215, "USER_city_name": "山口県周南市", "USER_url1": "http:\/\/www.city.shunan.lg.jp\/section\/joho\/joho\/y_densi_3_3.html", "USER_url2": null, "USER_url3": null }, "geometry": { "type": "Point", "coordinates": [ 131.806252106001011, 34.055061886124697 ] } },
{ "type": "Feature", "properties": { "ObjectID": 272, "USER_city_code": 35216, "USER_city_name": "山口県山陽小野田市", "USER_url1": "https:\/\/www.city.sanyo-onoda.lg.jp\/soshiki\/9\/open-data.html", "USER_url2": null, "USER_url3": null }, "geometry": { "type": "Point", "coordinates": [ 131.181763979001005, 34.003232174125301 ] } },
{ "type": "Feature", "properties": { "ObjectID": 273, "USER_city_code": 36208, "USER_city_name": "徳島県三好市", "USER_url1": "https:\/\/www.miyoshi.i-tokushima.jp\/shisei\/toke\/", "USER_url2": null, "USER_url3": null }, "geometry": { "type": "Point", "coordinates": [ 133.807196213000992, 34.026056778125003 ] } },
{ "type": "Feature", "properties": { "ObjectID": 274, "USER_city_code": 37201, "USER_city_name": "香川県高松市", "USER_url1": "http:\/\/www.city.takamatsu.kagawa.jp\/25074.html", "USER_url2": null, "USER_url3": null }, "geometry": { "type": "Point", "coordinates": [ 134.046640198001, 34.342770482121203 ] } },
{ "type": "Feature", "properties": { "ObjectID": 275, "USER_city_code": 37202, "USER_city_name": "香川県丸亀市", "USER_url1": "http:\/\/www.city.marugame.lg.jp\/itwinfo\/i28373\/", "USER_url2": null, "USER_url3": null }, "geometry": { "type": "Point", "coordinates": [ 133.797662843001007, 34.289330096121802 ] } },
{ "type": "Feature", "properties": { "ObjectID": 276, "USER_city_code": 37207, "USER_city_name": "香川県東かがわ市", "USER_url1": "http:\/\/www.higashikagawa.jp\/itwinfo\/i7512\/", "USER_url2": null, "USER_url3": null }, "geometry": { "type": "Point", "coordinates": [ 134.358778990001014, 34.243679478122402 ] } },
{ "type": "Feature", "properties": { "ObjectID": 277, "USER_city_code": 38201, "USER_city_name": "愛媛県松山市", "USER_url1": "http:\/\/www.city.matsuyama.ehime.jp\/shisei\/opendata\/top.html", "USER_url2": null, "USER_url3": null }, "geometry": { "type": "Point", "coordinates": [ 132.765601745000993, 33.839173193127401 ] } },
{ "type": "Feature", "properties": { "ObjectID": 278, "USER_city_code": 38202, "USER_city_name": "愛媛県今治市", "USER_url1": "http:\/\/www.city.imabari.ehime.jp\/opendata\/data.html", "USER_url2": null, "USER_url3": null }, "geometry": { "type": "Point", "coordinates": [ 132.997774413000997, 34.066208471124597 ] } },
{ "type": "Feature", "properties": { "ObjectID": 279, "USER_city_code": 38205, "USER_city_name": "愛媛県新居浜市", "USER_url1": "http:\/\/www.city.niihama.lg.jp\/site\/opendata\/", "USER_url2": null, "USER_url3": null }, "geometry": { "type": "Point", "coordinates": [ 133.283358681001005, 33.9603109811259 ] } },
{ "type": "Feature", "properties": { "ObjectID": 280, "USER_city_code": 40100, "USER_city_name": "福岡県北九州市", "USER_url1": "http:\/\/www.open-governmentdata.org\/kitakyushu-city\/", "USER_url2": null, "USER_url3": null }, "geometry": { "type": "Point", "coordinates": [ 130.87517942800099, 33.883294702126797 ] } },
{ "type": "Feature", "properties": { "ObjectID": 281, "USER_city_code": 40130, "USER_city_name": "福岡県福岡市", "USER_url1": "http:\/\/www.open-governmentdata.org\/fukuoka-city\/", "USER_url2": null, "USER_url3": null }, "geometry": { "type": "Point", "coordinates": [ 130.401674672001008, 33.590096494130499 ] } },
{ "type": "Feature", "properties": { "ObjectID": 282, "USER_city_code": 40203, "USER_city_name": "福岡県久留米市", "USER_url1": "http:\/\/kurume.bodik.jp", "USER_url2": null, "USER_url3": null }, "geometry": { "type": "Point", "coordinates": [ 130.508388647000999, 33.319263424134 ] } },
{ "type": "Feature", "properties": { "ObjectID": 283, "USER_city_code": 40216, "USER_city_name": "福岡県小郡市", "USER_url1": "http:\/\/odcs.bodik.jp\/402168\/", "USER_url2": null, "USER_url3": null }, "geometry": { "type": "Point", "coordinates": [ 130.555551441001001, 33.396423922133003 ] } },
{ "type": "Feature", "properties": { "ObjectID": 284, "USER_city_code": 40225, "USER_city_name": "福岡県うきは市", "USER_url1": "http:\/\/odcs.bodik.jp\/402257\/", "USER_url2": null, "USER_url3": null }, "geometry": { "type": "Point", "coordinates": [ 130.754869133000994, 33.347515549133597 ] } },
{ "type": "Feature", "properties": { "ObjectID": 285, "USER_city_code": 40503, "USER_city_name": "福岡県大刀洗町", "USER_url1": "http:\/\/odcs.bodik.jp\/405035\/", "USER_url2": null, "USER_url3": null }, "geometry": { "type": "Point", "coordinates": [ 130.622462274001009, 33.372343969133297 ] } },
{ "type": "Feature", "properties": { "ObjectID": 286, "USER_city_code": 40522, "USER_city_name": "福岡県大木町", "USER_url1": "http:\/\/www.town.ooki.lg.jp\/soshiki\/somu\/1\/2\/3410.html", "USER_url2": null, "USER_url3": null }, "geometry": { "type": "Point", "coordinates": [ 130.43981351600101, 33.210439515135398 ] } },
{ "type": "Feature", "properties": { "ObjectID": 287, "USER_city_code": 41203, "USER_city_name": "佐賀県鳥栖市", "USER_url1": "http:\/\/www.city.tosu.lg.jp\/5726.htm", "USER_url2": null, "USER_url3": null }, "geometry": { "type": "Point", "coordinates": [ 130.506002693000994, 33.377731979133202 ] } },
{ "type": "Feature", "properties": { "ObjectID": 288, "USER_city_code": 41205, "USER_city_name": "佐賀県伊万里市", "USER_url1": "http:\/\/www.city.imari.saga.jp\/opendata\/", "USER_url2": null, "USER_url3": null }, "geometry": { "type": "Point", "coordinates": [ 129.88069413000099, 33.264673807134699 ] } },
{ "type": "Feature", "properties": { "ObjectID": 289, "USER_city_code": 42202, "USER_city_name": "長崎県佐世保市", "USER_url1": "http:\/\/sasebo.machi-opendata.jp\/", "USER_url2": null, "USER_url3": null }, "geometry": { "type": "Point", "coordinates": [ 129.715126078000992, 33.179845746135797 ] } },
{ "type": "Feature", "properties": { "ObjectID": 290, "USER_city_code": 43100, "USER_city_name": "熊本県熊本市", "USER_url1": "http:\/\/www.city.kumamoto.jp\/hpkiji\/pub\/List.aspx?c_id=5&class_set_id=2&class_id=2032", "USER_url2": null, "USER_url3": null }, "geometry": { "type": "Point", "coordinates": [ 130.708023562000989, 32.803204934140801 ] } },
{ "type": "Feature", "properties": { "ObjectID": 291, "USER_city_code": 43210, "USER_city_name": "熊本県菊池市", "USER_url1": "http:\/\/www.city.kikuchi.lg.jp\/q\/aview\/295\/5551.html", "USER_url2": null, "USER_url3": null }, "geometry": { "type": "Point", "coordinates": [ 130.813306078001006, 32.979470265138502 ] } },
{ "type": "Feature", "properties": { "ObjectID": 292, "USER_city_code": 44201, "USER_city_name": "大分県大分市", "USER_url1": "https:\/\/www.city.oita.oita.jp\/shisejoho\/johohogo\/opendata\/index.html", "USER_url2": null, "USER_url3": null }, "geometry": { "type": "Point", "coordinates": [ 131.609105310001013, 33.239655165134998 ] } },
{ "type": "Feature", "properties": { "ObjectID": 293, "USER_city_code": 45204, "USER_city_name": "宮崎県日南市", "USER_url1": "http:\/\/www.city.nichinan.lg.jp\/main\/\/page011984.html", "USER_url2": null, "USER_url3": null }, "geometry": { "type": "Point", "coordinates": [ 131.378543879001001, 31.601781231157901 ] } },
{ "type": "Feature", "properties": { "ObjectID": 294, "USER_city_code": 46201, "USER_city_name": "鹿児島県鹿児島市", "USER_url1": "http:\/\/www.city.kagoshima.lg.jp\/jousys\/opendata.html", "USER_url2": null, "USER_url3": null }, "geometry": { "type": "Point", "coordinates": [ 130.557389308001007, 31.596681094158001 ] } },
{ "type": "Feature", "properties": { "ObjectID": 295, "USER_city_code": 47208, "USER_city_name": "沖縄県浦添市", "USER_url1": "http:\/\/www.city.urasoe.lg.jp\/categories\/kubun\/open_data\/", "USER_url2": null, "USER_url3": null }, "geometry": { "type": "Point", "coordinates": [ 127.722165064001004, 26.245751371251501 ] } },
{ "type": "Feature", "properties": { "ObjectID": 296, "USER_city_code": 47212, "USER_city_name": "沖縄県豊見城市", "USER_url1": "http:\/\/www.city.tomigusuku.okinawa.jp\/municipal_government\/4338", "USER_url2": null, "USER_url3": null }, "geometry": { "type": "Point", "coordinates": [ 127.668896555000998, 26.1610647072532 ] } }
]
}
